RESULT COORDINATE: ---> { results: 
   [ { address_components: 
        [ { long_name: 'Castel D\'Azzano',
            short_name: 'Castel D\'Azzano',
            types: [ 'locality', 'political', [length]: 2 ] },
          { long_name: 'Castel D\'azzano',
            short_name: 'Castel D\'azzano',
            types: [ 'administrative_area_level_3', 'political', [length]: 2 ] },
          { long_name: 'Provincia di Verona',
            short_name: 'VR',
            types: [ 'administrative_area_level_2', 'political', [length]: 2 ] },
          { long_name: 'Veneto',
            short_name: 'Veneto',
            types: [ 'administrative_area_level_1', 'political', [length]: 2 ] },
          { long_name: 'Italia',
            short_name: 'IT',
            types: [ 'country', 'political', [length]: 2 ] },
          { long_name: '37060',
            short_name: '37060',
            types: [ 'postal_code', [length]: 1 ] },
          [length]: 6 ],
       formatted_address: '37060 Castel D\'Azzano VR, Italia',
       geometry: 
        { bounds: 
           { northeast: { lat: 45.3781811, lng: 10.9683883 },
             southwest: { lat: 45.3452839, lng: 10.9243338 } },
          location: { lat: 45.3557414, lng: 10.9568381 },
          location_type: 'APPROXIMATE',
          viewport: 
           { northeast: { lat: 45.3781811, lng: 10.9683883 },
             southwest: { lat: 45.3452839, lng: 10.9243338 } } },
       place_id: 'ChIJH0ze2Dxgf0cRlvb6nRxrx7s',
       types: [ 'locality', 'political', [length]: 2 ] },
     [length]: 1 ],
  status: 'OK' }
object
**********************************
{ lat: 45.3557414, lng: 10.9568381 }
RESULT COORDINATE: ---> { results: 
   [ { address_components: 
        [ { long_name: 'Casaleone',
            short_name: 'Casaleone',
            types: [ 'locality', 'political', [length]: 2 ] },
          { long_name: 'Casaleone',
            short_name: 'Casaleone',
            types: [ 'administrative_area_level_3', 'political', [length]: 2 ] },
          { long_name: 'Provincia di Verona',
            short_name: 'VR',
            types: [ 'administrative_area_level_2', 'political', [length]: 2 ] },
          { long_name: 'Veneto',
            short_name: 'Veneto',
            types: [ 'administrative_area_level_1', 'political', [length]: 2 ] },
          { long_name: 'Italia',
            short_name: 'IT',
            types: [ 'country', 'political', [length]: 2 ] },
          { long_name: '37052',
            short_name: '37052',
            types: [ 'postal_code', [length]: 1 ] },
          [length]: 6 ],
       formatted_address: '37052 Casaleone VR, Italia',
       geometry: 
        { bounds: 
           { northeast: { lat: 45.1878131, lng: 11.221248 },
             southwest: { lat: 45.1490964, lng: 11.1728018 } },
          location: { lat: 45.1725945, lng: 11.1973286 },
          location_type: 'APPROXIMATE',
          viewport: 
           { northeast: { lat: 45.1878131, lng: 11.221248 },
             southwest: { lat: 45.1490964, lng: 11.1728018 } } },
       place_id: 'ChIJtfW4-k1yf0cRyt7alSXHHoA',
       types: [ 'locality', 'political', [length]: 2 ] },
     [length]: 1 ],
  status: 'OK' }
object
**********************************
{ lat: 45.1725945, lng: 11.1973286 }
RESULT COORDINATE: ---> { results: 
   [ { address_components: 
        [ { long_name: 'Boschi Sant\'Anna',
            short_name: 'Boschi Sant\'Anna',
            types: [ 'locality', 'political', [length]: 2 ] },
          { long_name: 'Boschi Sant\'Anna',
            short_name: 'Boschi Sant\'Anna',
            types: [ 'administrative_area_level_3', 'political', [length]: 2 ] },
          { long_name: 'Provincia di Verona',
            short_name: 'VR',
            types: [ 'administrative_area_level_2', 'political', [length]: 2 ] },
          { long_name: 'Veneto',
            short_name: 'Veneto',
            types: [ 'administrative_area_level_1', 'political', [length]: 2 ] },
          { long_name: 'Italia',
            short_name: 'IT',
            types: [ 'country', 'political', [length]: 2 ] },
          { long_name: '37040',
            short_name: '37040',
            types: [ 'postal_code', [length]: 1 ] },
          [length]: 6 ],
       formatted_address: '37040 Boschi Sant\'Anna VR, Italia',
       geometry: 
        { bounds: 
           { northeast: { lat: 45.2206058, lng: 11.3644478 },
             southwest: { lat: 45.2130172, lng: 11.344591 } },
          location: { lat: 45.2183472, lng: 11.3558906 },
          location_type: 'APPROXIMATE',
          viewport: 
           { northeast: { lat: 45.2206058, lng: 11.3644478 },
             southwest: { lat: 45.2130172, lng: 11.344591 } } },
       place_id: 'ChIJHXL0sjESf0cRNVkP4B2ikpI',
       types: [ 'locality', 'political', [length]: 2 ] },
     [length]: 1 ],
  status: 'OK' }
object
**********************************
{ lat: 45.2183472, lng: 11.3558906 }
RESULT COORDINATE: ---> { results: 
   [ { address_components: 
        [ { long_name: 'Bovolone',
            short_name: 'Bovolone',
            types: [ 'locality', 'political', [length]: 2 ] },
          { long_name: 'Bovolone',
            short_name: 'Bovolone',
            types: [ 'administrative_area_level_3', 'political', [length]: 2 ] },
          { long_name: 'Provincia di Verona',
            short_name: 'VR',
            types: [ 'administrative_area_level_2', 'political', [length]: 2 ] },
          { long_name: 'Veneto',
            short_name: 'Veneto',
            types: [ 'administrative_area_level_1', 'political', [length]: 2 ] },
          { long_name: 'Italia',
            short_name: 'IT',
            types: [ 'country', 'political', [length]: 2 ] },
          { long_name: '37051',
            short_name: '37051',
            types: [ 'postal_code', [length]: 1 ] },
          [length]: 6 ],
       formatted_address: '37051 Bovolone VR, Italia',
       geometry: 
        { bounds: 
           { northeast: { lat: 45.2862111, lng: 11.1460107 },
             southwest: { lat: 45.2416019, lng: 11.0889577 } },
          location: { lat: 45.257693, lng: 11.1206081 },
          location_type: 'APPROXIMATE',
          viewport: 
           { northeast: { lat: 45.2862111, lng: 11.1460107 },
             southwest: { lat: 45.2416019, lng: 11.0889577 } } },
       place_id: 'ChIJM520XWxvf0cRxzQwkB5IhaE',
       types: [ 'locality', 'political', [length]: 2 ] },
     [length]: 1 ],
  status: 'OK' }
object
**********************************
{ lat: 45.257693, lng: 11.1206081 }
RESULT COORDINATE: ---> { results: 
   [ { address_components: 
        [ { long_name: 'Caprino Veronese',
            short_name: 'Caprino Veronese',
            types: [ 'locality', 'political', [length]: 2 ] },
          { long_name: 'Caprino veronese',
            short_name: 'Caprino veronese',
            types: [ 'administrative_area_level_3', 'political', [length]: 2 ] },
          { long_name: 'Provincia di Verona',
            short_name: 'VR',
            types: [ 'administrative_area_level_2', 'political', [length]: 2 ] },
          { long_name: 'Veneto',
            short_name: 'Veneto',
            types: [ 'administrative_area_level_1', 'political', [length]: 2 ] },
          { long_name: 'Italia',
            short_name: 'IT',
            types: [ 'country', 'political', [length]: 2 ] },
          { long_name: '37013',
            short_name: '37013',
            types: [ 'postal_code', [length]: 1 ] },
          [length]: 6 ],
       formatted_address: '37013 Caprino Veronese VR, Italia',
       geometry: 
        { bounds: 
           { northeast: { lat: 45.6110123, lng: 10.8098814 },
             southwest: { lat: 45.5959288, lng: 10.7793529 } },
          location: { lat: 45.6061839, lng: 10.7948268 },
          location_type: 'APPROXIMATE',
          viewport: 
           { northeast: { lat: 45.6110123, lng: 10.8098814 },
             southwest: { lat: 45.5959288, lng: 10.7793529 } } },
       place_id: 'ChIJdfMnXSDxgUcRShxEbnfUeew',
       types: [ 'locality', 'political', [length]: 2 ] },
     [length]: 1 ],
  status: 'OK' }
object
**********************************
{ lat: 45.6061839, lng: 10.7948268 }
RESULT COORDINATE: ---> { results: 
   [ { address_components: 
        [ { long_name: 'Bevilacqua',
            short_name: 'Bevilacqua',
            types: [ 'locality', 'political', [length]: 2 ] },
          { long_name: 'Bevilacqua',
            short_name: 'Bevilacqua',
            types: [ 'administrative_area_level_3', 'political', [length]: 2 ] },
          { long_name: 'Provincia di Verona',
            short_name: 'VR',
            types: [ 'administrative_area_level_2', 'political', [length]: 2 ] },
          { long_name: 'Veneto',
            short_name: 'Veneto',
            types: [ 'administrative_area_level_1', 'political', [length]: 2 ] },
          { long_name: 'Italia',
            short_name: 'IT',
            types: [ 'country', 'political', [length]: 2 ] },
          { long_name: '37040',
            short_name: '37040',
            types: [ 'postal_code', [length]: 1 ] },
          [length]: 6 ],
       formatted_address: '37040 Bevilacqua VR, Italia',
       geometry: 
        { bounds: 
           { northeast: { lat: 45.2367867, lng: 11.4024282 },
             southwest: { lat: 45.2296019, lng: 11.3815566 } },
          location: { lat: 45.2336755, lng: 11.3978905 },
          location_type: 'APPROXIMATE',
          viewport: 
           { northeast: { lat: 45.2367867, lng: 11.4024282 },
             southwest: { lat: 45.2296019, lng: 11.3815566 } } },
       place_id: 'ChIJuz-GH28Rf0cR9Fm0Uu_-jbI',
       types: [ 'locality', 'political', [length]: 2 ] },
     [length]: 1 ],
  status: 'OK' }
object
**********************************
{ lat: 45.2336755, lng: 11.3978905 }
RESULT COORDINATE: ---> { results: 
   [ { address_components: 
        [ { long_name: 'Cazzano di Tramigna',
            short_name: 'Cazzano di Tramigna',
            types: [ 'locality', 'political', [length]: 2 ] },
          { long_name: 'Cazzano di Tramigna',
            short_name: 'Cazzano di Tramigna',
            types: [ 'administrative_area_level_3', 'political', [length]: 2 ] },
          { long_name: 'Provincia di Verona',
            short_name: 'VR',
            types: [ 'administrative_area_level_2', 'political', [length]: 2 ] },
          { long_name: 'Veneto',
            short_name: 'Veneto',
            types: [ 'administrative_area_level_1', 'political', [length]: 2 ] },
          { long_name: 'Italia',
            short_name: 'IT',
            types: [ 'country', 'political', [length]: 2 ] },
          { long_name: '37030',
            short_name: '37030',
            types: [ 'postal_code', [length]: 1 ] },
          [length]: 6 ],
       formatted_address: '37030 Cazzano di Tramigna VR, Italia',
       geometry: 
        { bounds: 
           { northeast: { lat: 45.479937, lng: 11.2080644 },
             southwest: { lat: 45.4664034, lng: 11.1990525 } },
          location: { lat: 45.4738251, lng: 11.2029065 },
          location_type: 'APPROXIMATE',
          viewport: 
           { northeast: { lat: 45.479937, lng: 11.2080644 },
             southwest: { lat: 45.4664034, lng: 11.1990525 } } },
       place_id: 'ChIJmyrZpCNFf0cRCh7qZ5PY23E',
       types: [ 'locality', 'political', [length]: 2 ] },
     [length]: 1 ],
  status: 'OK' }
object
**********************************
{ lat: 45.4738251, lng: 11.2029065 }
RESULT COORDINATE: ---> { results: 
   [ { address_components: 
        [ { long_name: 'Belfiore',
            short_name: 'Belfiore',
            types: [ 'locality', 'political', [length]: 2 ] },
          { long_name: 'Belfiore',
            short_name: 'Belfiore',
            types: [ 'administrative_area_level_3', 'political', [length]: 2 ] },
          { long_name: 'Provincia di Verona',
            short_name: 'VR',
            types: [ 'administrative_area_level_2', 'political', [length]: 2 ] },
          { long_name: 'Veneto',
            short_name: 'Veneto',
            types: [ 'administrative_area_level_1', 'political', [length]: 2 ] },
          { long_name: 'Italia',
            short_name: 'IT',
            types: [ 'country', 'political', [length]: 2 ] },
          { long_name: '37050',
            short_name: '37050',
            types: [ 'postal_code', [length]: 1 ] },
          [length]: 6 ],
       formatted_address: '37050 Belfiore VR, Italia',
       geometry: 
        { bounds: 
           { northeast: { lat: 45.3877444, lng: 11.2228439 },
             southwest: { lat: 45.374818, lng: 11.1993926 } },
          location: { lat: 45.3821981, lng: 11.2095501 },
          location_type: 'APPROXIMATE',
          viewport: 
           { northeast: { lat: 45.3877444, lng: 11.2228439 },
             southwest: { lat: 45.374818, lng: 11.1993926 } } },
       place_id: 'ChIJRUZabU9Cf0cRm-U6SmZgX4U',
       types: [ 'locality', 'political', [length]: 2 ] },
     [length]: 1 ],
  status: 'OK' }
object
**********************************
{ lat: 45.3821981, lng: 11.2095501 }
RESULT COORDINATE: ---> { results: 
   [ { address_components: 
        [ { long_name: 'Bardolino',
            short_name: 'Bardolino',
            types: [ 'locality', 'political', [length]: 2 ] },
          { long_name: 'Bardolino',
            short_name: 'Bardolino',
            types: [ 'administrative_area_level_3', 'political', [length]: 2 ] },
          { long_name: 'Provincia di Verona',
            short_name: 'VR',
            types: [ 'administrative_area_level_2', 'political', [length]: 2 ] },
          { long_name: 'Veneto',
            short_name: 'Veneto',
            types: [ 'administrative_area_level_1', 'political', [length]: 2 ] },
          { long_name: 'Italia',
            short_name: 'IT',
            types: [ 'country', 'political', [length]: 2 ] },
          { long_name: '37011',
            short_name: '37011',
            types: [ 'postal_code', [length]: 1 ] },
          [length]: 6 ],
       formatted_address: '37011 Bardolino VR, Italia',
       geometry: 
        { bounds: 
           { northeast: { lat: 45.55987330000001, lng: 10.7511852 },
             southwest: { lat: 45.5224069, lng: 10.7150408 } },
          location: { lat: 45.551817, lng: 10.7214679 },
          location_type: 'APPROXIMATE',
          viewport: 
           { northeast: { lat: 45.55987330000001, lng: 10.7511852 },
             southwest: { lat: 45.5224069, lng: 10.7150408 } } },
       place_id: 'ChIJI38jmgbugUcRzVnGTaHwbgU',
       types: [ 'locality', 'political', [length]: 2 ] },
     [length]: 1 ],
  status: 'OK' }
object
**********************************
{ lat: 45.551817, lng: 10.7214679 }
RESULT COORDINATE: ---> { results: 
   [ { address_components: 
        [ { long_name: 'Arcole',
            short_name: 'Arcole',
            types: [ 'locality', 'political', [length]: 2 ] },
          { long_name: 'Arcole',
            short_name: 'Arcole',
            types: [ 'administrative_area_level_3', 'political', [length]: 2 ] },
          { long_name: 'Provincia di Verona',
            short_name: 'VR',
            types: [ 'administrative_area_level_2', 'political', [length]: 2 ] },
          { long_name: 'Veneto',
            short_name: 'Veneto',
            types: [ 'administrative_area_level_1', 'political', [length]: 2 ] },
          { long_name: 'Italia',
            short_name: 'IT',
            types: [ 'country', 'political', [length]: 2 ] },
          { long_name: '37040',
            short_name: '37040',
            types: [ 'postal_code', [length]: 1 ] },
          [length]: 6 ],
       formatted_address: '37040 Arcole VR, Italia',
       geometry: 
        { bounds: 
           { northeast: { lat: 45.3689201, lng: 11.3065067 },
             southwest: { lat: 45.34725960000001, lng: 11.2781848 } },
          location: { lat: 45.3585202, lng: 11.2845346 },
          location_type: 'APPROXIMATE',
          viewport: 
           { northeast: { lat: 45.3689201, lng: 11.3065067 },
             southwest: { lat: 45.34725960000001, lng: 11.2781848 } } },
       place_id: 'ChIJ5S6eYjFAf0cR9bOC-qTB7MM',
       types: [ 'locality', 'political', [length]: 2 ] },
     [length]: 1 ],
  status: 'OK' }
object
**********************************
{ lat: 45.3585202, lng: 11.2845346 }
RESULT COORDINATE: ---> { results: 
   [ { address_components: 
        [ { long_name: 'Bonavigo',
            short_name: 'Bonavigo',
            types: [ 'locality', 'political', [length]: 2 ] },
          { long_name: 'Bonavigo',
            short_name: 'Bonavigo',
            types: [ 'administrative_area_level_3', 'political', [length]: 2 ] },
          { long_name: 'Provincia di Verona',
            short_name: 'VR',
            types: [ 'administrative_area_level_2', 'political', [length]: 2 ] },
          { long_name: 'Veneto',
            short_name: 'Veneto',
            types: [ 'administrative_area_level_1', 'political', [length]: 2 ] },
          { long_name: 'Italia',
            short_name: 'IT',
            types: [ 'country', 'political', [length]: 2 ] },
          { long_name: '37040',
            short_name: '37040',
            types: [ 'postal_code', [length]: 1 ] },
          [length]: 6 ],
       formatted_address: '37040 Bonavigo VR, Italia',
       geometry: 
        { bounds: 
           { northeast: { lat: 45.2635176, lng: 11.2866021 },
             southwest: { lat: 45.2546995, lng: 11.2714482 } },
          location: { lat: 45.2583269, lng: 11.2762972 },
          location_type: 'APPROXIMATE',
          viewport: 
           { northeast: { lat: 45.2635176, lng: 11.2866021 },
             southwest: { lat: 45.2546995, lng: 11.2714482 } } },
       place_id: 'ChIJvbPLErBsf0cRklatNOkquCQ',
       types: [ 'locality', 'political', [length]: 2 ] },
     [length]: 1 ],
  status: 'OK' }
object
**********************************
{ lat: 45.2583269, lng: 11.2762972 }
RESULT COORDINATE: ---> { results: 
   [ { address_components: 
        [ { long_name: 'Affi',
            short_name: 'Affi',
            types: [ 'locality', 'political', [length]: 2 ] },
          { long_name: 'Affi',
            short_name: 'Affi',
            types: [ 'administrative_area_level_3', 'political', [length]: 2 ] },
          { long_name: 'Provincia di Verona',
            short_name: 'VR',
            types: [ 'administrative_area_level_2', 'political', [length]: 2 ] },
          { long_name: 'Veneto',
            short_name: 'Veneto',
            types: [ 'administrative_area_level_1', 'political', [length]: 2 ] },
          { long_name: 'Italia',
            short_name: 'IT',
            types: [ 'country', 'political', [length]: 2 ] },
          { long_name: '37010',
            short_name: '37010',
            types: [ 'postal_code', [length]: 1 ] },
          [length]: 6 ],
       formatted_address: '37010 Affi VR, Italia',
       geometry: 
        { bounds: 
           { northeast: { lat: 45.56026310000001, lng: 10.7993129 },
             southwest: { lat: 45.5486659, lng: 10.7692832 } },
          location: { lat: 45.552506, lng: 10.7720528 },
          location_type: 'APPROXIMATE',
          viewport: 
           { northeast: { lat: 45.56026310000001, lng: 10.7993129 },
             southwest: { lat: 45.5486659, lng: 10.7692832 } } },
       place_id: 'ChIJ08_Gxy3wgUcR-Y_CQtlm-iQ',
       types: [ 'locality', 'political', [length]: 2 ] },
     [length]: 1 ],
  status: 'OK' }
object
**********************************
{ lat: 45.552506, lng: 10.7720528 }
RESULT COORDINATE: ---> { results: 
   [ { address_components: 
        [ { long_name: 'Buttapietra',
            short_name: 'Buttapietra',
            types: [ 'locality', 'political', [length]: 2 ] },
          { long_name: 'Buttapietra',
            short_name: 'Buttapietra',
            types: [ 'administrative_area_level_3', 'political', [length]: 2 ] },
          { long_name: 'Provincia di Verona',
            short_name: 'VR',
            types: [ 'administrative_area_level_2', 'political', [length]: 2 ] },
          { long_name: 'Veneto',
            short_name: 'Veneto',
            types: [ 'administrative_area_level_1', 'political', [length]: 2 ] },
          { long_name: 'Italia',
            short_name: 'IT',
            types: [ 'country', 'political', [length]: 2 ] },
          { long_name: '37060',
            short_name: '37060',
            types: [ 'postal_code', [length]: 1 ] },
          [length]: 6 ],
       formatted_address: '37060 Buttapietra VR, Italia',
       geometry: 
        { bounds: 
           { northeast: { lat: 45.3536262, lng: 11.0168148 },
             southwest: { lat: 45.3287174, lng: 10.9876563 } },
          location: { lat: 45.34131499999999, lng: 10.9989857 },
          location_type: 'APPROXIMATE',
          viewport: 
           { northeast: { lat: 45.3536262, lng: 11.0168148 },
             southwest: { lat: 45.3287174, lng: 10.9876563 } } },
       place_id: 'ChIJ56RnjORgf0cRUHI1lG62hOk',
       types: [ 'locality', 'political', [length]: 2 ] },
     [length]: 1 ],
  status: 'OK' }
object
**********************************
{ lat: 45.34131499999999, lng: 10.9989857 }
RESULT COORDINATE: ---> { results: 
   [ { address_components: 
        [ { long_name: 'Angiari',
            short_name: 'Angiari',
            types: [ 'locality', 'political', [length]: 2 ] },
          { long_name: 'Angiari',
            short_name: 'Angiari',
            types: [ 'administrative_area_level_3', 'political', [length]: 2 ] },
          { long_name: 'Provincia di Verona',
            short_name: 'VR',
            types: [ 'administrative_area_level_2', 'political', [length]: 2 ] },
          { long_name: 'Veneto',
            short_name: 'Veneto',
            types: [ 'administrative_area_level_1', 'political', [length]: 2 ] },
          { long_name: 'Italia',
            short_name: 'IT',
            types: [ 'country', 'political', [length]: 2 ] },
          { long_name: '37050',
            short_name: '37050',
            types: [ 'postal_code', [length]: 1 ] },
          [length]: 6 ],
       formatted_address: '37050 Angiari VR, Italia',
       geometry: 
        { bounds: 
           { northeast: { lat: 45.2324844, lng: 11.2912975 },
             southwest: { lat: 45.2116578, lng: 11.2685045 } },
          location: { lat: 45.2179264, lng: 11.283351 },
          location_type: 'APPROXIMATE',
          viewport: 
           { northeast: { lat: 45.2324844, lng: 11.2912975 },
             southwest: { lat: 45.2116578, lng: 11.2685045 } } },
       place_id: 'ChIJNc3fos0Sf0cRFNT-3_yGLC8',
       types: [ 'locality', 'political', [length]: 2 ] },
     [length]: 1 ],
  status: 'OK' }
object
**********************************
{ lat: 45.2179264, lng: 11.283351 }
RESULT COORDINATE: ---> { results: 
   [ { address_components: 
        [ { long_name: 'Albaredo D\'adige',
            short_name: 'Albaredo D\'adige',
            types: [ 'locality', 'political', [length]: 2 ] },
          { long_name: 'Albaredo D\'adige',
            short_name: 'Albaredo D\'adige',
            types: [ 'administrative_area_level_3', 'political', [length]: 2 ] },
          { long_name: 'Provincia di Verona',
            short_name: 'VR',
            types: [ 'administrative_area_level_2', 'political', [length]: 2 ] },
          { long_name: 'Veneto',
            short_name: 'Veneto',
            types: [ 'administrative_area_level_1', 'political', [length]: 2 ] },
          { long_name: 'Italia',
            short_name: 'IT',
            types: [ 'country', 'political', [length]: 2 ] },
          { long_name: '37041',
            short_name: '37041',
            types: [ 'postal_code', [length]: 1 ] },
          [length]: 6 ],
       formatted_address: '37041 Albaredo D\'adige VR, Italia',
       geometry: 
        { bounds: 
           { northeast: { lat: 45.3316092, lng: 11.2975909 },
             southwest: { lat: 45.3052557, lng: 11.2642937 } },
          location: { lat: 45.31699709999999, lng: 11.2761608 },
          location_type: 'APPROXIMATE',
          viewport: 
           { northeast: { lat: 45.3316092, lng: 11.2975909 },
             southwest: { lat: 45.3052557, lng: 11.2642937 } } },
       place_id: 'ChIJWUKmBvBqf0cRFnxJg-DUHEo',
       types: [ 'locality', 'political', [length]: 2 ] },
     [length]: 1 ],
  status: 'OK' }
object
**********************************
{ lat: 45.31699709999999, lng: 11.2761608 }
RESULT COORDINATE: ---> { results: 
   [ { address_components: 
        [ { long_name: 'Caldiero',
            short_name: 'Caldiero',
            types: [ 'locality', 'political', [length]: 2 ] },
          { long_name: 'Caldiero',
            short_name: 'Caldiero',
            types: [ 'administrative_area_level_3', 'political', [length]: 2 ] },
          { long_name: 'Provincia di Verona',
            short_name: 'VR',
            types: [ 'administrative_area_level_2', 'political', [length]: 2 ] },
          { long_name: 'Veneto',
            short_name: 'Veneto',
            types: [ 'administrative_area_level_1', 'political', [length]: 2 ] },
          { long_name: 'Italia',
            short_name: 'IT',
            types: [ 'country', 'political', [length]: 2 ] },
          { long_name: '37042',
            short_name: '37042',
            types: [ 'postal_code', [length]: 1 ] },
          [length]: 6 ],
       formatted_address: '37042 Caldiero VR, Italia',
       geometry: 
        { bounds: 
           { northeast: { lat: 45.4170199, lng: 11.1905286 },
             southwest: { lat: 45.4041879, lng: 11.1646445 } },
          location: { lat: 45.4091277, lng: 11.1827775 },
          location_type: 'APPROXIMATE',
          viewport: 
           { northeast: { lat: 45.4170199, lng: 11.1905286 },
             southwest: { lat: 45.4041879, lng: 11.1646445 } } },
       place_id: 'ChIJETheez9Df0cRDWq7SPRevsU',
       types: [ 'locality', 'political', [length]: 2 ] },
     [length]: 1 ],
  status: 'OK' }
object
**********************************
{ lat: 45.4091277, lng: 11.1827775 }
RESULT COORDINATE: ---> { results: 
   [ { address_components: 
        [ { long_name: 'Cerea',
            short_name: 'Cerea',
            types: [ 'locality', 'political', [length]: 2 ] },
          { long_name: 'Cerea',
            short_name: 'Cerea',
            types: [ 'administrative_area_level_3', 'political', [length]: 2 ] },
          { long_name: 'Provincia di Verona',
            short_name: 'VR',
            types: [ 'administrative_area_level_2', 'political', [length]: 2 ] },
          { long_name: 'Veneto',
            short_name: 'Veneto',
            types: [ 'administrative_area_level_1', 'political', [length]: 2 ] },
          { long_name: 'Italia',
            short_name: 'IT',
            types: [ 'country', 'political', [length]: 2 ] },
          { long_name: '37053',
            short_name: '37053',
            types: [ 'postal_code', [length]: 1 ] },
          [length]: 6 ],
       formatted_address: '37053 Cerea VR, Italia',
       geometry: 
        { bounds: 
           { northeast: { lat: 45.2118173, lng: 11.2522071 },
             southwest: { lat: 45.1685349, lng: 11.1827369 } },
          location: { lat: 45.1931241, lng: 11.210085 },
          location_type: 'APPROXIMATE',
          viewport: 
           { northeast: { lat: 45.2118173, lng: 11.2522071 },
             southwest: { lat: 45.1685349, lng: 11.1827369 } } },
       place_id: 'ChIJdbv1v2Jyf0cRyBjlG0bxJrM',
       types: [ 'locality', 'political', [length]: 2 ] },
     [length]: 1 ],
  status: 'OK' }
object
**********************************
{ lat: 45.1931241, lng: 11.210085 }
RESULT COORDINATE: ---> { results: 
   [ { address_components: 
        [ { long_name: 'Cavaion Veronese',
            short_name: 'Cavaion Veronese',
            types: [ 'locality', 'political', [length]: 2 ] },
          { long_name: 'Cavaion veronese',
            short_name: 'Cavaion veronese',
            types: [ 'administrative_area_level_3', 'political', [length]: 2 ] },
          { long_name: 'Provincia di Verona',
            short_name: 'VR',
            types: [ 'administrative_area_level_2', 'political', [length]: 2 ] },
          { long_name: 'Veneto',
            short_name: 'Veneto',
            types: [ 'administrative_area_level_1', 'political', [length]: 2 ] },
          { long_name: 'Italia',
            short_name: 'IT',
            types: [ 'country', 'political', [length]: 2 ] },
          { long_name: '37010',
            short_name: '37010',
            types: [ 'postal_code', [length]: 1 ] },
          [length]: 6 ],
       formatted_address: '37010 Cavaion Veronese VR, Italia',
       geometry: 
        { bounds: 
           { northeast: { lat: 45.5445934, lng: 10.7819061 },
             southwest: { lat: 45.53429329999999, lng: 10.7600513 } },
          location: { lat: 45.5402498, lng: 10.7701136 },
          location_type: 'APPROXIMATE',
          viewport: 
           { northeast: { lat: 45.5445934, lng: 10.7819061 },
             southwest: { lat: 45.53429329999999, lng: 10.7600513 } } },
       place_id: 'ChIJta4zAS3ugUcRwA3I2C-kQ7Y',
       types: [ 'locality', 'political', [length]: 2 ] },
     [length]: 1 ],
  status: 'OK' }
object
**********************************
{ lat: 45.5402498, lng: 10.7701136 }
RESULT COORDINATE: ---> { results: 
   [ { address_components: 
        [ { long_name: 'Garda',
            short_name: 'Garda',
            types: [ 'locality', 'political', [length]: 2 ] },
          { long_name: 'Garda',
            short_name: 'Garda',
            types: [ 'administrative_area_level_3', 'political', [length]: 2 ] },
          { long_name: 'Provincia di Verona',
            short_name: 'VR',
            types: [ 'administrative_area_level_2', 'political', [length]: 2 ] },
          { long_name: 'Veneto',
            short_name: 'Veneto',
            types: [ 'administrative_area_level_1', 'political', [length]: 2 ] },
          { long_name: 'Italia',
            short_name: 'IT',
            types: [ 'country', 'political', [length]: 2 ] },
          { long_name: '37016',
            short_name: '37016',
            types: [ 'postal_code', [length]: 1 ] },
          [length]: 6 ],
       formatted_address: '37016 Garda VR, Italia',
       geometry: 
        { bounds: 
           { northeast: { lat: 45.5877129, lng: 10.7327614 },
             southwest: { lat: 45.5701633, lng: 10.6912236 } },
          location: { lat: 45.5771011, lng: 10.7055676 },
          location_type: 'APPROXIMATE',
          viewport: 
           { northeast: { lat: 45.5877129, lng: 10.7327614 },
             southwest: { lat: 45.5701633, lng: 10.6912236 } } },
       place_id: 'ChIJ8QZzYDjygUcRp35ckgd1dgU',
       types: [ 'locality', 'political', [length]: 2 ] },
     [length]: 1 ],
  status: 'OK' }
object
**********************************
{ lat: 45.5771011, lng: 10.7055676 }
RESULT COORDINATE: ---> { results: 
   [ { address_components: 
        [ { long_name: 'Cerro Veronese',
            short_name: 'Cerro Veronese',
            types: [ 'locality', 'political', [length]: 2 ] },
          { long_name: 'Cerro veronese',
            short_name: 'Cerro veronese',
            types: [ 'administrative_area_level_3', 'political', [length]: 2 ] },
          { long_name: 'Provincia di Verona',
            short_name: 'VR',
            types: [ 'administrative_area_level_2', 'political', [length]: 2 ] },
          { long_name: 'Veneto',
            short_name: 'Veneto',
            types: [ 'administrative_area_level_1', 'political', [length]: 2 ] },
          { long_name: 'Italia',
            short_name: 'IT',
            types: [ 'country', 'political', [length]: 2 ] },
          [length]: 5 ],
       formatted_address: 'Cerro Veronese VR, Italia',
       geometry: 
        { bounds: 
           { northeast: { lat: 45.590554, lng: 11.0500406 },
             southwest: { lat: 45.5631311, lng: 11.034245 } },
          location: { lat: 45.5741085, lng: 11.0385667 },
          location_type: 'APPROXIMATE',
          viewport: 
           { northeast: { lat: 45.590554, lng: 11.0500406 },
             southwest: { lat: 45.5631311, lng: 11.034245 } } },
       place_id: 'ChIJ03UeozxWf0cRzRHSrZ4iPng',
       types: [ 'locality', 'political', [length]: 2 ] },
     [length]: 1 ],
  status: 'OK' }
object
**********************************
{ lat: 45.5741085, lng: 11.0385667 }
RESULT COORDINATE: ---> { results: 
   [ { address_components: 
        [ { long_name: 'Grezzana',
            short_name: 'Grezzana',
            types: [ 'locality', 'political', [length]: 2 ] },
          { long_name: 'Grezzana',
            short_name: 'Grezzana',
            types: [ 'administrative_area_level_3', 'political', [length]: 2 ] },
          { long_name: 'Provincia di Verona',
            short_name: 'VR',
            types: [ 'administrative_area_level_2', 'political', [length]: 2 ] },
          { long_name: 'Veneto',
            short_name: 'Veneto',
            types: [ 'administrative_area_level_1', 'political', [length]: 2 ] },
          { long_name: 'Italia',
            short_name: 'IT',
            types: [ 'country', 'political', [length]: 2 ] },
          { long_name: '37023',
            short_name: '37023',
            types: [ 'postal_code', [length]: 1 ] },
          [length]: 6 ],
       formatted_address: '37023 Grezzana VR, Italia',
       geometry: 
        { bounds: 
           { northeast: { lat: 45.5379362, lng: 11.0350297 },
             southwest: { lat: 45.5113956, lng: 11.0029678 } },
          location: { lat: 45.5195294, lng: 11.0165425 },
          location_type: 'APPROXIMATE',
          viewport: 
           { northeast: { lat: 45.5379362, lng: 11.0350297 },
             southwest: { lat: 45.5113956, lng: 11.0029678 } } },
       place_id: 'ChIJbae0ZAJYf0cRg_Grqs4zslA',
       types: [ 'locality', 'political', [length]: 2 ] },
     [length]: 1 ],
  status: 'OK' }
object
**********************************
{ lat: 45.5195294, lng: 11.0165425 }
RESULT COORDINATE: ---> { results: 
   [ { address_components: 
        [ { long_name: 'Cologna Veneta',
            short_name: 'Cologna Veneta',
            types: [ 'locality', 'political', [length]: 2 ] },
          { long_name: 'Cologna veneta',
            short_name: 'Cologna veneta',
            types: [ 'administrative_area_level_3', 'political', [length]: 2 ] },
          { long_name: 'Provincia di Verona',
            short_name: 'VR',
            types: [ 'administrative_area_level_2', 'political', [length]: 2 ] },
          { long_name: 'Veneto',
            short_name: 'Veneto',
            types: [ 'administrative_area_level_1', 'political', [length]: 2 ] },
          { long_name: 'Italia',
            short_name: 'IT',
            types: [ 'country', 'political', [length]: 2 ] },
          { long_name: '37044',
            short_name: '37044',
            types: [ 'postal_code', [length]: 1 ] },
          [length]: 6 ],
       formatted_address: '37044 Cologna Veneta VR, Italia',
       geometry: 
        { bounds: 
           { northeast: { lat: 45.3214671, lng: 11.3911958 },
             southwest: { lat: 45.2917399, lng: 11.3628149 } },
          location: { lat: 45.3089469, lng: 11.3795921 },
          location_type: 'APPROXIMATE',
          viewport: 
           { northeast: { lat: 45.3214671, lng: 11.3911958 },
             southwest: { lat: 45.2917399, lng: 11.3628149 } } },
       place_id: 'ChIJ0dOIObgVf0cRNFMzFL6buws',
       types: [ 'locality', 'political', [length]: 2 ] },
     [length]: 1 ],
  status: 'OK' }
object
**********************************
{ lat: 45.3089469, lng: 11.3795921 }
RESULT COORDINATE: ---> { results: 
   [ { address_components: 
        [ { long_name: 'Castagnaro',
            short_name: 'Castagnaro',
            types: [ 'locality', 'political', [length]: 2 ] },
          { long_name: 'Castagnaro',
            short_name: 'Castagnaro',
            types: [ 'administrative_area_level_3', 'political', [length]: 2 ] },
          { long_name: 'Provincia di Verona',
            short_name: 'VR',
            types: [ 'administrative_area_level_2', 'political', [length]: 2 ] },
          { long_name: 'Veneto',
            short_name: 'Veneto',
            types: [ 'administrative_area_level_1', 'political', [length]: 2 ] },
          { long_name: 'Italia',
            short_name: 'IT',
            types: [ 'country', 'political', [length]: 2 ] },
          { long_name: '37043',
            short_name: '37043',
            types: [ 'postal_code', [length]: 1 ] },
          [length]: 6 ],
       formatted_address: '37043 Castagnaro VR, Italia',
       geometry: 
        { bounds: 
           { northeast: { lat: 45.1327834, lng: 11.4307242 },
             southwest: { lat: 45.0995485, lng: 11.3938366 } },
          location: { lat: 45.12037429999999, lng: 11.4109948 },
          location_type: 'APPROXIMATE',
          viewport: 
           { northeast: { lat: 45.1327834, lng: 11.4307242 },
             southwest: { lat: 45.0995485, lng: 11.3938366 } } },
       place_id: 'ChIJHUHwpkYPf0cRXk1mqKwFvc0',
       types: [ 'locality', 'political', [length]: 2 ] },
     [length]: 1 ],
  status: 'OK' }
object
**********************************
{ lat: 45.12037429999999, lng: 11.4109948 }
RESULT COORDINATE: ---> { results: 
   [ { address_components: 
        [ { long_name: 'Bussolengo',
            short_name: 'Bussolengo',
            types: [ 'locality', 'political', [length]: 2 ] },
          { long_name: 'Bussolengo',
            short_name: 'Bussolengo',
            types: [ 'administrative_area_level_3', 'political', [length]: 2 ] },
          { long_name: 'Provincia di Verona',
            short_name: 'VR',
            types: [ 'administrative_area_level_2', 'political', [length]: 2 ] },
          { long_name: 'Veneto',
            short_name: 'Veneto',
            types: [ 'administrative_area_level_1', 'political', [length]: 2 ] },
          { long_name: 'Italia',
            short_name: 'IT',
            types: [ 'country', 'political', [length]: 2 ] },
          { long_name: '37012',
            short_name: '37012',
            types: [ 'postal_code', [length]: 1 ] },
          [length]: 6 ],
       formatted_address: '37012 Bussolengo VR, Italia',
       geometry: 
        { bounds: 
           { northeast: { lat: 45.480255, lng: 10.8816834 },
             southwest: { lat: 45.4389847, lng: 10.8375492 } },
          location: { lat: 45.4732537, lng: 10.8507277 },
          location_type: 'APPROXIMATE',
          viewport: 
           { northeast: { lat: 45.480255, lng: 10.8816834 },
             southwest: { lat: 45.4389847, lng: 10.8375492 } } },
       place_id: 'ChIJWcXrQS_kgUcRGLxAWmUutug',
       types: [ 'locality', 'political', [length]: 2 ] },
     [length]: 1 ],
  status: 'OK' }
object
**********************************
{ lat: 45.4732537, lng: 10.8507277 }
RESULT COORDINATE: ---> { results: 
   [ { address_components: 
        [ { long_name: 'Brenzone sul Garda',
            short_name: 'Brenzone sul Garda',
            types: [ 'locality', 'political', [length]: 2 ] },
          { long_name: 'Brenzone',
            short_name: 'Brenzone',
            types: [ 'administrative_area_level_3', 'political', [length]: 2 ] },
          { long_name: 'Provincia di Verona',
            short_name: 'VR',
            types: [ 'administrative_area_level_2', 'political', [length]: 2 ] },
          { long_name: 'Veneto',
            short_name: 'Veneto',
            types: [ 'administrative_area_level_1', 'political', [length]: 2 ] },
          { long_name: 'Italia',
            short_name: 'IT',
            types: [ 'country', 'political', [length]: 2 ] },
          { long_name: '37010',
            short_name: '37010',
            types: [ 'postal_code', [length]: 1 ] },
          [length]: 6 ],
       formatted_address: '37010 Brenzone sul Garda VR, Italia',
       geometry: 
        { bounds: 
           { northeast: { lat: 45.7292132, lng: 10.7868161 },
             southwest: { lat: 45.6612725, lng: 10.7273932 } },
          location: { lat: 45.7084285, lng: 10.7675388 },
          location_type: 'APPROXIMATE',
          viewport: 
           { northeast: { lat: 45.7292132, lng: 10.7868161 },
             southwest: { lat: 45.6930749, lng: 10.7544444 } } },
       partial_match: true,
       place_id: 'ChIJNRHO3or1gUcRAPX3vxRg34I',
       types: [ 'locality', 'political', [length]: 2 ] },
     [length]: 1 ],
  status: 'OK' }
object
**********************************
{ lat: 45.7084285, lng: 10.7675388 }
RESULT COORDINATE: ---> { results: 
   [ { address_components: 
        [ { long_name: 'Badia Calavena',
            short_name: 'Badia Calavena',
            types: [ 'locality', 'political', [length]: 2 ] },
          { long_name: 'Badia Calavena',
            short_name: 'Badia Calavena',
            types: [ 'administrative_area_level_3', 'political', [length]: 2 ] },
          { long_name: 'Provincia di Verona',
            short_name: 'VR',
            types: [ 'administrative_area_level_2', 'political', [length]: 2 ] },
          { long_name: 'Veneto',
            short_name: 'Veneto',
            types: [ 'administrative_area_level_1', 'political', [length]: 2 ] },
          { long_name: 'Italia',
            short_name: 'IT',
            types: [ 'country', 'political', [length]: 2 ] },
          { long_name: '37030',
            short_name: '37030',
            types: [ 'postal_code', [length]: 1 ] },
          [length]: 6 ],
       formatted_address: '37030 Badia Calavena VR, Italia',
       geometry: 
        { bounds: 
           { northeast: { lat: 45.5731259, lng: 11.159811 },
             southwest: { lat: 45.5568649, lng: 11.1458552 } },
          location: { lat: 45.5638355, lng: 11.1560806 },
          location_type: 'APPROXIMATE',
          viewport: 
           { northeast: { lat: 45.5731259, lng: 11.159811 },
             southwest: { lat: 45.5568649, lng: 11.1458552 } } },
       place_id: 'ChIJBY8qdhRRf0cR622jLtU-DZQ',
       types: [ 'locality', 'political', [length]: 2 ] },
     [length]: 1 ],
  status: 'OK' }
object
**********************************
{ lat: 45.5638355, lng: 11.1560806 }
RESULT COORDINATE: ---> { results: 
   [ { address_components: 
        [ { long_name: 'Bosco Chiesanuova',
            short_name: 'Bosco Chiesanuova',
            types: [ 'locality', 'political', [length]: 2 ] },
          { long_name: 'Bosco Chiesanuova',
            short_name: 'Bosco Chiesanuova',
            types: [ 'administrative_area_level_3', 'political', [length]: 2 ] },
          { long_name: 'Provincia di Verona',
            short_name: 'VR',
            types: [ 'administrative_area_level_2', 'political', [length]: 2 ] },
          { long_name: 'Veneto',
            short_name: 'Veneto',
            types: [ 'administrative_area_level_1', 'political', [length]: 2 ] },
          { long_name: 'Italia',
            short_name: 'IT',
            types: [ 'country', 'political', [length]: 2 ] },
          { long_name: '37021',
            short_name: '37021',
            types: [ 'postal_code', [length]: 1 ] },
          [length]: 6 ],
       formatted_address: '37021 Bosco Chiesanuova VR, Italia',
       geometry: 
        { bounds: 
           { northeast: { lat: 45.6287913, lng: 11.0425603 },
             southwest: { lat: 45.6130567, lng: 11.0156553 } },
          location: { lat: 45.6201376, lng: 11.0270741 },
          location_type: 'APPROXIMATE',
          viewport: 
           { northeast: { lat: 45.6287913, lng: 11.0425603 },
             southwest: { lat: 45.6130567, lng: 11.0156553 } } },
       place_id: 'ChIJEwr4jTz-gUcRwRaO4UjKPiI',
       types: [ 'locality', 'political', [length]: 2 ] },
     [length]: 1 ],
  status: 'OK' }
object
**********************************
{ lat: 45.6201376, lng: 11.0270741 }
RESULT COORDINATE: ---> { results: 
   [ { address_components: 
        [ { long_name: 'Ferrara di Monte Baldo',
            short_name: 'Ferrara di Monte Baldo',
            types: [ 'locality', 'political', [length]: 2 ] },
          { long_name: 'Ferrara di Monte Baldo',
            short_name: 'Ferrara di Monte Baldo',
            types: [ 'administrative_area_level_3', 'political', [length]: 2 ] },
          { long_name: 'Provincia di Verona',
            short_name: 'VR',
            types: [ 'administrative_area_level_2', 'political', [length]: 2 ] },
          { long_name: 'Veneto',
            short_name: 'Veneto',
            types: [ 'administrative_area_level_1', 'political', [length]: 2 ] },
          { long_name: 'Italia',
            short_name: 'IT',
            types: [ 'country', 'political', [length]: 2 ] },
          { long_name: '37020',
            short_name: '37020',
            types: [ 'postal_code', [length]: 1 ] },
          [length]: 6 ],
       formatted_address: '37020 Ferrara di Monte Baldo VR, Italia',
       geometry: 
        { bounds: 
           { northeast: { lat: 45.6782915, lng: 10.865709 },
             southwest: { lat: 45.67086159999999, lng: 10.8508263 } },
          location: { lat: 45.676669, lng: 10.8532677 },
          location_type: 'APPROXIMATE',
          viewport: 
           { northeast: { lat: 45.6782915, lng: 10.865709 },
             southwest: { lat: 45.67086159999999, lng: 10.8508263 } } },
       place_id: 'ChIJPy-TFe33gUcRla0_fmtfBpI',
       types: [ 'locality', 'political', [length]: 2 ] },
     [length]: 1 ],
  status: 'OK' }
object
**********************************
{ lat: 45.676669, lng: 10.8532677 }
RESULT COORDINATE: ---> { results: 
   [ { address_components: 
        [ { long_name: 'Erbezzo',
            short_name: 'Erbezzo',
            types: [ 'locality', 'political', [length]: 2 ] },
          { long_name: 'Erbezzo',
            short_name: 'Erbezzo',
            types: [ 'administrative_area_level_3', 'political', [length]: 2 ] },
          { long_name: 'Provincia di Verona',
            short_name: 'VR',
            types: [ 'administrative_area_level_2', 'political', [length]: 2 ] },
          { long_name: 'Veneto',
            short_name: 'Veneto',
            types: [ 'administrative_area_level_1', 'political', [length]: 2 ] },
          { long_name: 'Italia',
            short_name: 'IT',
            types: [ 'country', 'political', [length]: 2 ] },
          { long_name: '37020',
            short_name: '37020',
            types: [ 'postal_code', [length]: 1 ] },
          [length]: 6 ],
       formatted_address: '37020 Erbezzo VR, Italia',
       geometry: 
        { bounds: 
           { northeast: { lat: 45.6443653, lng: 11.0036774 },
             southwest: { lat: 45.6333479, lng: 10.9968313 } },
          location: { lat: 45.6367306, lng: 11.0010699 },
          location_type: 'APPROXIMATE',
          viewport: 
           { northeast: { lat: 45.6443653, lng: 11.0036774 },
             southwest: { lat: 45.6333479, lng: 10.9968313 } } },
       place_id: 'ChIJra7yGP7-gUcRYHptTGXle2U',
       types: [ 'locality', 'political', [length]: 2 ] },
     [length]: 1 ],
  status: 'OK' }
object
**********************************
{ lat: 45.6367306, lng: 11.0010699 }
RESULT COORDINATE: ---> { results: 
   [ { address_components: 
        [ { long_name: 'Brentino Belluno',
            short_name: 'Brentino Belluno',
            types: [ 'locality', 'political', [length]: 2 ] },
          { long_name: 'Brentino Belluno',
            short_name: 'Brentino Belluno',
            types: [ 'administrative_area_level_3', 'political', [length]: 2 ] },
          { long_name: 'Provincia di Verona',
            short_name: 'VR',
            types: [ 'administrative_area_level_2', 'political', [length]: 2 ] },
          { long_name: 'Veneto',
            short_name: 'Veneto',
            types: [ 'administrative_area_level_1', 'political', [length]: 2 ] },
          { long_name: 'Italia',
            short_name: 'IT',
            types: [ 'country', 'political', [length]: 2 ] },
          { long_name: '37020',
            short_name: '37020',
            types: [ 'postal_code', [length]: 1 ] },
          [length]: 6 ],
       formatted_address: '37020 Brentino Belluno VR, Italia',
       geometry: 
        { location: { lat: 45.642809, lng: 10.8724714 },
          location_type: 'APPROXIMATE',
          viewport: 
           { northeast: { lat: 45.6506093, lng: 10.8884788 },
             southwest: { lat: 45.63500759999999, lng: 10.856464 } } },
       place_id: 'ChIJxWRbCND5gUcRqZSgZFAYChU',
       types: [ 'locality', 'political', [length]: 2 ] },
     [length]: 1 ],
  status: 'OK' }
object
**********************************
{ lat: 45.642809, lng: 10.8724714 }
RESULT COORDINATE: ---> { results: 
   [ { address_components: 
        [ { long_name: 'Costermano',
            short_name: 'Costermano',
            types: [ 'locality', 'political', [length]: 2 ] },
          { long_name: 'Costermano',
            short_name: 'Costermano',
            types: [ 'administrative_area_level_3', 'political', [length]: 2 ] },
          { long_name: 'Provincia di Verona',
            short_name: 'VR',
            types: [ 'administrative_area_level_2', 'political', [length]: 2 ] },
          { long_name: 'Veneto',
            short_name: 'Veneto',
            types: [ 'administrative_area_level_1', 'political', [length]: 2 ] },
          { long_name: 'Italia',
            short_name: 'IT',
            types: [ 'country', 'political', [length]: 2 ] },
          { long_name: '37010',
            short_name: '37010',
            types: [ 'postal_code', [length]: 1 ] },
          [length]: 6 ],
       formatted_address: '37010 Costermano VR, Italia',
       geometry: 
        { bounds: 
           { northeast: { lat: 45.590477, lng: 10.7459469 },
             southwest: { lat: 45.5821716, lng: 10.7258919 } },
          location: { lat: 45.58583429999999, lng: 10.7432813 },
          location_type: 'APPROXIMATE',
          viewport: 
           { northeast: { lat: 45.590477, lng: 10.7459469 },
             southwest: { lat: 45.5821716, lng: 10.7258919 } } },
       place_id: 'ChIJEWheZCzygUcR50Re9ypScY8',
       types: [ 'locality', 'political', [length]: 2 ] },
     [length]: 1 ],
  status: 'OK' }
object
**********************************
{ lat: 45.58583429999999, lng: 10.7432813 }
RESULT COORDINATE: ---> { results: 
   [ { address_components: 
        [ { long_name: 'Illasi',
            short_name: 'Illasi',
            types: [ 'locality', 'political', [length]: 2 ] },
          { long_name: 'Illasi',
            short_name: 'Illasi',
            types: [ 'administrative_area_level_3', 'political', [length]: 2 ] },
          { long_name: 'Provincia di Verona',
            short_name: 'VR',
            types: [ 'administrative_area_level_2', 'political', [length]: 2 ] },
          { long_name: 'Veneto',
            short_name: 'Veneto',
            types: [ 'administrative_area_level_1', 'political', [length]: 2 ] },
          { long_name: 'Italia',
            short_name: 'IT',
            types: [ 'country', 'political', [length]: 2 ] },
          { long_name: '37031',
            short_name: '37031',
            types: [ 'postal_code', [length]: 1 ] },
          [length]: 6 ],
       formatted_address: '37031 Illasi VR, Italia',
       geometry: 
        { bounds: 
           { northeast: { lat: 45.4765118, lng: 11.1901773 },
             southwest: { lat: 45.4549712, lng: 11.1728195 } },
          location: { lat: 45.468023, lng: 11.1802006 },
          location_type: 'APPROXIMATE',
          viewport: 
           { northeast: { lat: 45.4765118, lng: 11.1901773 },
             southwest: { lat: 45.4549712, lng: 11.1728195 } } },
       place_id: 'ChIJH2n-5tREf0cRQLgYJmkAXlc',
       types: [ 'locality', 'political', [length]: 2 ] },
     [length]: 1 ],
  status: 'OK' }
object
**********************************
{ lat: 45.468023, lng: 11.1802006 }
RESULT COORDINATE: ---> { results: 
   [ { address_components: 
        [ { long_name: 'Colognola Ai Colli',
            short_name: 'Colognola Ai Colli',
            types: [ 'locality', 'political', [length]: 2 ] },
          { long_name: 'Colognola ai Colli',
            short_name: 'Colognola ai Colli',
            types: [ 'administrative_area_level_3', 'political', [length]: 2 ] },
          { long_name: 'Provincia di Verona',
            short_name: 'VR',
            types: [ 'administrative_area_level_2', 'political', [length]: 2 ] },
          { long_name: 'Veneto',
            short_name: 'Veneto',
            types: [ 'administrative_area_level_1', 'political', [length]: 2 ] },
          { long_name: 'Italia',
            short_name: 'IT',
            types: [ 'country', 'political', [length]: 2 ] },
          { long_name: '37030',
            short_name: '37030',
            types: [ 'postal_code', [length]: 1 ] },
          [length]: 6 ],
       formatted_address: '37030 Colognola Ai Colli VR, Italia',
       geometry: 
        { bounds: 
           { northeast: { lat: 45.4473333, lng: 11.2010256 },
             southwest: { lat: 45.4282216, lng: 11.1724038 } },
          location: { lat: 45.4333052, lng: 11.1942875 },
          location_type: 'APPROXIMATE',
          viewport: 
           { northeast: { lat: 45.4473333, lng: 11.2010256 },
             southwest: { lat: 45.4282216, lng: 11.1724038 } } },
       place_id: 'ChIJuWXNpKZEf0cRw2Wdk0E9pZQ',
       types: [ 'locality', 'political', [length]: 2 ] },
     [length]: 1 ],
  status: 'OK' }
object
**********************************
{ lat: 45.4333052, lng: 11.1942875 }
RESULT COORDINATE: ---> { results: 
   [ { address_components: 
        [ { long_name: 'Gazzo Veronese',
            short_name: 'Gazzo Veronese',
            types: [ 'locality', 'political', [length]: 2 ] },
          { long_name: 'Gazzo veronese',
            short_name: 'Gazzo veronese',
            types: [ 'administrative_area_level_3', 'political', [length]: 2 ] },
          { long_name: 'Provincia di Verona',
            short_name: 'VR',
            types: [ 'administrative_area_level_2', 'political', [length]: 2 ] },
          { long_name: 'Veneto',
            short_name: 'Veneto',
            types: [ 'administrative_area_level_1', 'political', [length]: 2 ] },
          { long_name: 'Italia',
            short_name: 'IT',
            types: [ 'country', 'political', [length]: 2 ] },
          { long_name: '37060',
            short_name: '37060',
            types: [ 'postal_code', [length]: 1 ] },
          [length]: 6 ],
       formatted_address: '37060 Gazzo Veronese VR, Italia',
       geometry: 
        { bounds: 
           { northeast: { lat: 45.1451621, lng: 11.0891979 },
             southwest: { lat: 45.1342505, lng: 11.0737944 } },
          location: { lat: 45.1428, lng: 11.076074 },
          location_type: 'APPROXIMATE',
          viewport: 
           { northeast: { lat: 45.1451621, lng: 11.0891979 },
             southwest: { lat: 45.1342505, lng: 11.0737944 } } },
       place_id: 'ChIJDTVOq8twf0cR_A68L4BQ4s0',
       types: [ 'locality', 'political', [length]: 2 ] },
     [length]: 1 ],
  status: 'OK' }
object
**********************************
{ lat: 45.1428, lng: 11.076074 }
RESULT COORDINATE: ---> { results: 
   [ { address_components: 
        [ { long_name: 'Legnago',
            short_name: 'Legnago',
            types: [ 'locality', 'political', [length]: 2 ] },
          { long_name: 'Legnago',
            short_name: 'Legnago',
            types: [ 'administrative_area_level_3', 'political', [length]: 2 ] },
          { long_name: 'Provincia di Verona',
            short_name: 'VR',
            types: [ 'administrative_area_level_2', 'political', [length]: 2 ] },
          { long_name: 'Veneto',
            short_name: 'Veneto',
            types: [ 'administrative_area_level_1', 'political', [length]: 2 ] },
          { long_name: 'Italia',
            short_name: 'IT',
            types: [ 'country', 'political', [length]: 2 ] },
          { long_name: '37045',
            short_name: '37045',
            types: [ 'postal_code', [length]: 1 ] },
          [length]: 6 ],
       formatted_address: '37045 Legnago VR, Italia',
       geometry: 
        { bounds: 
           { northeast: { lat: 45.2083696, lng: 11.339526 },
             southwest: { lat: 45.1584882, lng: 11.250648 } },
          location: { lat: 45.1935965, lng: 11.303213 },
          location_type: 'APPROXIMATE',
          viewport: 
           { northeast: { lat: 45.2083696, lng: 11.339526 },
             southwest: { lat: 45.1584882, lng: 11.250648 } } },
       place_id: 'ChIJ84ZIZGQNf0cRJdGW4Xv3pcM',
       types: [ 'locality', 'political', [length]: 2 ] },
     [length]: 1 ],
  status: 'OK' }
object
**********************************
{ lat: 45.1935965, lng: 11.303213 }
RESULT COORDINATE: ---> { results: 
   [ { address_components: 
        [ { long_name: 'Malcesine',
            short_name: 'Malcesine',
            types: [ 'locality', 'political', [length]: 2 ] },
          { long_name: 'Malcesine',
            short_name: 'Malcesine',
            types: [ 'administrative_area_level_3', 'political', [length]: 2 ] },
          { long_name: 'Provincia di Verona',
            short_name: 'VR',
            types: [ 'administrative_area_level_2', 'political', [length]: 2 ] },
          { long_name: 'Veneto',
            short_name: 'Veneto',
            types: [ 'administrative_area_level_1', 'political', [length]: 2 ] },
          { long_name: 'Italia',
            short_name: 'IT',
            types: [ 'country', 'political', [length]: 2 ] },
          { long_name: '37018',
            short_name: '37018',
            types: [ 'postal_code', [length]: 1 ] },
          [length]: 6 ],
       formatted_address: '37018 Malcesine VR, Italia',
       geometry: 
        { bounds: 
           { northeast: { lat: 45.7917627, lng: 10.8306879 },
             southwest: { lat: 45.7274365, lng: 10.7820603 } },
          location: { lat: 45.7642335, lng: 10.8100928 },
          location_type: 'APPROXIMATE',
          viewport: 
           { northeast: { lat: 45.7917627, lng: 10.8306879 },
             southwest: { lat: 45.7274365, lng: 10.7820603 } } },
       place_id: 'ChIJtbrinacegkcR0Si1upQEqFM',
       types: [ 'locality', 'political', [length]: 2 ] },
     [length]: 1 ],
  status: 'OK' }
object
**********************************
{ lat: 45.7642335, lng: 10.8100928 }
RESULT COORDINATE: ---> { results: 
   [ { address_components: 
        [ { long_name: 'Fumane',
            short_name: 'Fumane',
            types: [ 'locality', 'political', [length]: 2 ] },
          { long_name: 'Fumane',
            short_name: 'Fumane',
            types: [ 'administrative_area_level_3', 'political', [length]: 2 ] },
          { long_name: 'Provincia di Verona',
            short_name: 'VR',
            types: [ 'administrative_area_level_2', 'political', [length]: 2 ] },
          { long_name: 'Veneto',
            short_name: 'Veneto',
            types: [ 'administrative_area_level_1', 'political', [length]: 2 ] },
          { long_name: 'Italia',
            short_name: 'IT',
            types: [ 'country', 'political', [length]: 2 ] },
          { long_name: '37022',
            short_name: '37022',
            types: [ 'postal_code', [length]: 1 ] },
          [length]: 6 ],
       formatted_address: '37022 Fumane VR, Italia',
       geometry: 
        { bounds: 
           { northeast: { lat: 45.565014, lng: 10.8953677 },
             southwest: { lat: 45.5345223, lng: 10.8707225 } },
          location: { lat: 45.5464869, lng: 10.8848766 },
          location_type: 'APPROXIMATE',
          viewport: 
           { northeast: { lat: 45.565014, lng: 10.8953677 },
             southwest: { lat: 45.5345223, lng: 10.8707225 } } },
       place_id: 'ChIJh2t8hDH7gUcRCn5mGd-rbWY',
       types: [ 'locality', 'political', [length]: 2 ] },
     [length]: 1 ],
  status: 'OK' }
object
**********************************
{ lat: 45.5464869, lng: 10.8848766 }
RESULT COORDINATE: ---> { results: 
   [ { address_components: 
        [ { long_name: 'Lazise',
            short_name: 'Lazise',
            types: [ 'locality', 'political', [length]: 2 ] },
          { long_name: 'Lazise',
            short_name: 'Lazise',
            types: [ 'administrative_area_level_3', 'political', [length]: 2 ] },
          { long_name: 'Provincia di Verona',
            short_name: 'VR',
            types: [ 'administrative_area_level_2', 'political', [length]: 2 ] },
          { long_name: 'Veneto',
            short_name: 'Veneto',
            types: [ 'administrative_area_level_1', 'political', [length]: 2 ] },
          { long_name: 'Italia',
            short_name: 'IT',
            types: [ 'country', 'political', [length]: 2 ] },
          { long_name: '37017',
            short_name: '37017',
            types: [ 'postal_code', [length]: 1 ] },
          [length]: 6 ],
       formatted_address: '37017 Lazise VR, Italia',
       geometry: 
        { bounds: 
           { northeast: { lat: 45.5185129, lng: 10.7492543 },
             southwest: { lat: 45.49144500000001, lng: 10.7293595 } },
          location: { lat: 45.50602019999999, lng: 10.7350716 },
          location_type: 'APPROXIMATE',
          viewport: 
           { northeast: { lat: 45.5185129, lng: 10.7492543 },
             southwest: { lat: 45.49144500000001, lng: 10.7293595 } } },
       place_id: 'ChIJTXlmIfPugUcRByD_huiE7Js',
       types: [ 'locality', 'political', [length]: 2 ] },
     [length]: 1 ],
  status: 'OK' }
object
**********************************
{ lat: 45.50602019999999, lng: 10.7350716 }
RESULT COORDINATE: ---> { results: 
   [ { address_components: 
        [ { long_name: 'Isola Rizza',
            short_name: 'Isola Rizza',
            types: [ 'locality', 'political', [length]: 2 ] },
          { long_name: 'Isola Rizza',
            short_name: 'Isola Rizza',
            types: [ 'administrative_area_level_3', 'political', [length]: 2 ] },
          { long_name: 'Provincia di Verona',
            short_name: 'VR',
            types: [ 'administrative_area_level_2', 'political', [length]: 2 ] },
          { long_name: 'Veneto',
            short_name: 'Veneto',
            types: [ 'administrative_area_level_1', 'political', [length]: 2 ] },
          { long_name: 'Italia',
            short_name: 'IT',
            types: [ 'country', 'political', [length]: 2 ] },
          { long_name: '37050',
            short_name: '37050',
            types: [ 'postal_code', [length]: 1 ] },
          [length]: 6 ],
       formatted_address: '37050 Isola Rizza VR, Italia',
       geometry: 
        { bounds: 
           { northeast: { lat: 45.2993342, lng: 11.2141568 },
             southwest: { lat: 45.280669, lng: 11.1841338 } },
          location: { lat: 45.2909855, lng: 11.1995678 },
          location_type: 'APPROXIMATE',
          viewport: 
           { northeast: { lat: 45.2993342, lng: 11.2141568 },
             southwest: { lat: 45.280669, lng: 11.1841338 } } },
       place_id: 'ChIJ2SqOdltpf0cRaQK382MfKaQ',
       types: [ 'locality', 'political', [length]: 2 ] },
     [length]: 1 ],
  status: 'OK' }
object
**********************************
{ lat: 45.2909855, lng: 11.1995678 }
RESULT COORDINATE: ---> { results: 
   [ { address_components: 
        [ { long_name: 'Isola della Scala',
            short_name: 'Isola della Scala',
            types: [ 'locality', 'political', [length]: 2 ] },
          { long_name: 'Isola della scala',
            short_name: 'Isola della scala',
            types: [ 'administrative_area_level_3', 'political', [length]: 2 ] },
          { long_name: 'Provincia di Verona',
            short_name: 'VR',
            types: [ 'administrative_area_level_2', 'political', [length]: 2 ] },
          { long_name: 'Veneto',
            short_name: 'Veneto',
            types: [ 'administrative_area_level_1', 'political', [length]: 2 ] },
          { long_name: 'Italia',
            short_name: 'IT',
            types: [ 'country', 'political', [length]: 2 ] },
          { long_name: '37063',
            short_name: '37063',
            types: [ 'postal_code', [length]: 1 ] },
          [length]: 6 ],
       formatted_address: '37063 Isola della Scala VR, Italia',
       geometry: 
        { bounds: 
           { northeast: { lat: 45.2883138, lng: 11.0300176 },
             southwest: { lat: 45.2506299, lng: 10.9929025 } },
          location: { lat: 45.2736648, lng: 11.0071652 },
          location_type: 'APPROXIMATE',
          viewport: 
           { northeast: { lat: 45.2883138, lng: 11.0300176 },
             southwest: { lat: 45.2506299, lng: 10.9929025 } } },
       place_id: 'ChIJYYnssHdkf0cRdJ_CZ57-pnE',
       types: [ 'locality', 'political', [length]: 2 ] },
     [length]: 1 ],
  status: 'OK' }
object
**********************************
{ lat: 45.2736648, lng: 11.0071652 }
RESULT COORDINATE: ---> { results: 
   [ { address_components: 
        [ { long_name: 'Dolc',
            short_name: 'Dolc',
            types: [ 'locality', 'political', [length]: 2 ] },
          { long_name: 'Dolc',
            short_name: 'Dolc',
            types: [ 'administrative_area_level_3', 'political', [length]: 2 ] },
          { long_name: 'Provincia di Verona',
            short_name: 'VR',
            types: [ 'administrative_area_level_2', 'political', [length]: 2 ] },
          { long_name: 'Veneto',
            short_name: 'Veneto',
            types: [ 'administrative_area_level_1', 'political', [length]: 2 ] },
          { long_name: 'Italia',
            short_name: 'IT',
            types: [ 'country', 'political', [length]: 2 ] },
          { long_name: '37020',
            short_name: '37020',
            types: [ 'postal_code', [length]: 1 ] },
          [length]: 6 ],
       formatted_address: '37020 Dolc VR, Italia',
       geometry: 
        { bounds: 
           { northeast: { lat: 45.6034034, lng: 10.8575157 },
             southwest: { lat: 45.597203, lng: 10.8462959 } },
          location: { lat: 45.6010397, lng: 10.8520226 },
          location_type: 'APPROXIMATE',
          viewport: 
           { northeast: { lat: 45.6034034, lng: 10.8575157 },
             southwest: { lat: 45.597203, lng: 10.8462959 } } },
       place_id: 'ChIJe6iEFAz6gUcRHXDY--BHaq4',
       types: [ 'locality', 'political', [length]: 2 ] },
     [length]: 1 ],
  status: 'OK' }
object
**********************************
{ lat: 45.6010397, lng: 10.8520226 }
RESULT COORDINATE: ---> { results: 
   [ { address_components: 
        [ { long_name: 'Castelnuovo del Garda',
            short_name: 'Castelnuovo del Garda',
            types: [ 'locality', 'political', [length]: 2 ] },
          { long_name: 'Castelnuovo del Garda',
            short_name: 'Castelnuovo del Garda',
            types: [ 'administrative_area_level_3', 'political', [length]: 2 ] },
          { long_name: 'Provincia di Verona',
            short_name: 'VR',
            types: [ 'administrative_area_level_2', 'political', [length]: 2 ] },
          { long_name: 'Veneto',
            short_name: 'Veneto',
            types: [ 'administrative_area_level_1', 'political', [length]: 2 ] },
          { long_name: 'Italia',
            short_name: 'IT',
            types: [ 'country', 'political', [length]: 2 ] },
          { long_name: '37014',
            short_name: '37014',
            types: [ 'postal_code', [length]: 1 ] },
          [length]: 6 ],
       formatted_address: '37014 Castelnuovo del Garda VR, Italia',
       geometry: 
        { bounds: 
           { northeast: { lat: 45.4492396, lng: 10.7698839 },
             southwest: { lat: 45.42581329999999, lng: 10.7459241 } },
          location: { lat: 45.4413794, lng: 10.7582149 },
          location_type: 'APPROXIMATE',
          viewport: 
           { northeast: { lat: 45.4492396, lng: 10.7698839 },
             southwest: { lat: 45.42581329999999, lng: 10.7459241 } } },
       place_id: 'ChIJJXItL4vogUcRZLxLilxKtUA',
       types: [ 'locality', 'political', [length]: 2 ] },
     [length]: 1 ],
  status: 'OK' }
object
**********************************
{ lat: 45.4413794, lng: 10.7582149 }
RESULT COORDINATE: ---> { results: 
   [ { address_components: 
        [ { long_name: 'Erb',
            short_name: 'Erb',
            types: [ 'locality', 'political', [length]: 2 ] },
          { long_name: 'Erb',
            short_name: 'Erb',
            types: [ 'administrative_area_level_3', 'political', [length]: 2 ] },
          { long_name: 'Provincia di Verona',
            short_name: 'VR',
            types: [ 'administrative_area_level_2', 'political', [length]: 2 ] },
          { long_name: 'Veneto',
            short_name: 'Veneto',
            types: [ 'administrative_area_level_1', 'political', [length]: 2 ] },
          { long_name: 'Italia',
            short_name: 'IT',
            types: [ 'country', 'political', [length]: 2 ] },
          { long_name: '37060',
            short_name: '37060',
            types: [ 'postal_code', [length]: 1 ] },
          [length]: 6 ],
       formatted_address: '37060 Erb VR, Italia',
       geometry: 
        { bounds: 
           { northeast: { lat: 45.24641159999999, lng: 10.976836 },
             southwest: { lat: 45.2357121, lng: 10.9606902 } },
          location: { lat: 45.2395097, lng: 10.9688333 },
          location_type: 'APPROXIMATE',
          viewport: 
           { northeast: { lat: 45.24641159999999, lng: 10.976836 },
             southwest: { lat: 45.2357121, lng: 10.9606902 } } },
       place_id: 'ChIJRyoYuD9jf0cR1wMvsFW3Als',
       types: [ 'locality', 'political', [length]: 2 ] },
     [length]: 1 ],
  status: 'OK' }
object
**********************************
{ lat: 45.2395097, lng: 10.9688333 }
RESULT COORDINATE: ---> { results: 
   [ { address_components: 
        [ { long_name: 'Concamarise',
            short_name: 'Concamarise',
            types: [ 'locality', 'political', [length]: 2 ] },
          { long_name: 'Concamarise',
            short_name: 'Concamarise',
            types: [ 'administrative_area_level_3', 'political', [length]: 2 ] },
          { long_name: 'Provincia di Verona',
            short_name: 'VR',
            types: [ 'administrative_area_level_2', 'political', [length]: 2 ] },
          { long_name: 'Veneto',
            short_name: 'Veneto',
            types: [ 'administrative_area_level_1', 'political', [length]: 2 ] },
          { long_name: 'Italia',
            short_name: 'IT',
            types: [ 'country', 'political', [length]: 2 ] },
          { long_name: '37050',
            short_name: '37050',
            types: [ 'postal_code', [length]: 1 ] },
          [length]: 6 ],
       formatted_address: '37050 Concamarise VR, Italia',
       geometry: 
        { bounds: 
           { northeast: { lat: 45.2117278, lng: 11.1443964 },
             southwest: { lat: 45.202654, lng: 11.1340477 } },
          location: { lat: 45.2065963, lng: 11.139744 },
          location_type: 'APPROXIMATE',
          viewport: 
           { northeast: { lat: 45.2117278, lng: 11.1443964 },
             southwest: { lat: 45.202654, lng: 11.1340477 } } },
       place_id: 'ChIJkThhkCRuf0cR5H4xfgHl5ts',
       types: [ 'locality', 'political', [length]: 2 ] },
     [length]: 1 ],
  status: 'OK' }
object
**********************************
{ lat: 45.2065963, lng: 11.139744 }
RESULT COORDINATE: ---> { results: 
   [ { address_components: 
        [ { long_name: 'Lavagno',
            short_name: 'Lavagno',
            types: [ 'locality', 'political', [length]: 2 ] },
          { long_name: 'Lavagno',
            short_name: 'Lavagno',
            types: [ 'administrative_area_level_3', 'political', [length]: 2 ] },
          { long_name: 'Provincia di Verona',
            short_name: 'VR',
            types: [ 'administrative_area_level_2', 'political', [length]: 2 ] },
          { long_name: 'Veneto',
            short_name: 'Veneto',
            types: [ 'administrative_area_level_1', 'political', [length]: 2 ] },
          { long_name: 'Italia',
            short_name: 'IT',
            types: [ 'country', 'political', [length]: 2 ] },
          { long_name: '37030',
            short_name: '37030',
            types: [ 'postal_code', [length]: 1 ] },
          [length]: 6 ],
       formatted_address: '37030 Lavagno VR, Italia',
       geometry: 
        { location: { lat: 45.4406554, lng: 11.132258 },
          location_type: 'APPROXIMATE',
          viewport: 
           { northeast: { lat: 45.4484838, lng: 11.1482654 },
             southwest: { lat: 45.4328259, lng: 11.1162506 } } },
       place_id: 'ChIJQd4WoXxbf0cRsRfG0IbpuRc',
       types: [ 'locality', 'political', [length]: 2 ] },
     [length]: 1 ],
  status: 'OK' }
object
**********************************
{ lat: 45.4406554, lng: 11.132258 }
RESULT COORDINATE: ---> { results: 
   [ { address_components: 
        [ { long_name: 'Minerbe',
            short_name: 'Minerbe',
            types: [ 'locality', 'political', [length]: 2 ] },
          { long_name: 'Minerbe',
            short_name: 'Minerbe',
            types: [ 'administrative_area_level_3', 'political', [length]: 2 ] },
          { long_name: 'Provincia di Verona',
            short_name: 'VR',
            types: [ 'administrative_area_level_2', 'political', [length]: 2 ] },
          { long_name: 'Veneto',
            short_name: 'Veneto',
            types: [ 'administrative_area_level_1', 'political', [length]: 2 ] },
          { long_name: 'Italia',
            short_name: 'IT',
            types: [ 'country', 'political', [length]: 2 ] },
          { long_name: '37046',
            short_name: '37046',
            types: [ 'postal_code', [length]: 1 ] },
          [length]: 6 ],
       formatted_address: '37046 Minerbe VR, Italia',
       geometry: 
        { bounds: 
           { northeast: { lat: 45.2532572, lng: 11.3792374 },
             southwest: { lat: 45.2275013, lng: 11.3169904 } },
          location: { lat: 45.2409498, lng: 11.3295949 },
          location_type: 'APPROXIMATE',
          viewport: 
           { northeast: { lat: 45.2532572, lng: 11.3792374 },
             southwest: { lat: 45.2275013, lng: 11.3169904 } } },
       place_id: 'ChIJnTdWFrwTf0cRzA74l_VEdtg',
       types: [ 'locality', 'political', [length]: 2 ] },
     [length]: 1 ],
  status: 'OK' }
object
**********************************
{ lat: 45.2409498, lng: 11.3295949 }
RESULT COORDINATE: ---> { results: 
   [ { address_components: 
        [ { long_name: 'Marano di Valpolicella',
            short_name: 'Marano di Valpolicella',
            types: [ 'locality', 'political', [length]: 2 ] },
          { long_name: 'Marano di Valpolicella',
            short_name: 'Marano di Valpolicella',
            types: [ 'administrative_area_level_3', 'political', [length]: 2 ] },
          { long_name: 'Provincia di Verona',
            short_name: 'VR',
            types: [ 'administrative_area_level_2', 'political', [length]: 2 ] },
          { long_name: 'Veneto',
            short_name: 'Veneto',
            types: [ 'administrative_area_level_1', 'political', [length]: 2 ] },
          { long_name: 'Italia',
            short_name: 'IT',
            types: [ 'country', 'political', [length]: 2 ] },
          { long_name: '37020',
            short_name: '37020',
            types: [ 'postal_code', [length]: 1 ] },
          [length]: 6 ],
       formatted_address: '37020 Marano di Valpolicella VR, Italia',
       geometry: 
        { bounds: 
           { northeast: { lat: 45.5594609, lng: 10.9187659 },
             southwest: { lat: 45.553301, lng: 10.9128901 } },
          location: { lat: 45.55659319999999, lng: 10.9160932 },
          location_type: 'APPROXIMATE',
          viewport: 
           { northeast: { lat: 45.5594609, lng: 10.9187659 },
             southwest: { lat: 45.553301, lng: 10.9128901 } } },
       place_id: 'ChIJ9cATjGb7gUcRTnXEiBCX03g',
       types: [ 'locality', 'political', [length]: 2 ] },
     [length]: 1 ],
  status: 'OK' }
object
**********************************
{ lat: 45.55659319999999, lng: 10.9160932 }
RESULT COORDINATE: ---> { results: 
   [ { address_components: 
        [ { long_name: 'Nogara',
            short_name: 'Nogara',
            types: [ 'locality', 'political', [length]: 2 ] },
          { long_name: 'Nogara',
            short_name: 'Nogara',
            types: [ 'administrative_area_level_3', 'political', [length]: 2 ] },
          { long_name: 'Provincia di Verona',
            short_name: 'VR',
            types: [ 'administrative_area_level_2', 'political', [length]: 2 ] },
          { long_name: 'Veneto',
            short_name: 'Veneto',
            types: [ 'administrative_area_level_1', 'political', [length]: 2 ] },
          { long_name: 'Italia',
            short_name: 'IT',
            types: [ 'country', 'political', [length]: 2 ] },
          { long_name: '37054',
            short_name: '37054',
            types: [ 'postal_code', [length]: 1 ] },
          [length]: 6 ],
       formatted_address: '37054 Nogara VR, Italia',
       geometry: 
        { bounds: 
           { northeast: { lat: 45.20413910000001, lng: 11.0939421 },
             southwest: { lat: 45.15929089999999, lng: 11.037517 } },
          location: { lat: 45.1789313, lng: 11.0637432 },
          location_type: 'APPROXIMATE',
          viewport: 
           { northeast: { lat: 45.20413910000001, lng: 11.0939421 },
             southwest: { lat: 45.15929089999999, lng: 11.037517 } } },
       place_id: 'ChIJtbtgwoB6f0cRcEgoRIox_Qg',
       types: [ 'locality', 'political', [length]: 2 ] },
     [length]: 1 ],
  status: 'OK' }
object
**********************************
{ lat: 45.1789313, lng: 11.0637432 }
RESULT COORDINATE: ---> { results: 
   [ { address_components: 
        [ { long_name: 'Mozzecane',
            short_name: 'Mozzecane',
            types: [ 'locality', 'political', [length]: 2 ] },
          { long_name: 'Mozzecane',
            short_name: 'Mozzecane',
            types: [ 'administrative_area_level_3', 'political', [length]: 2 ] },
          { long_name: 'Provincia di Verona',
            short_name: 'VR',
            types: [ 'administrative_area_level_2', 'political', [length]: 2 ] },
          { long_name: 'Veneto',
            short_name: 'Veneto',
            types: [ 'administrative_area_level_1', 'political', [length]: 2 ] },
          { long_name: 'Italia',
            short_name: 'IT',
            types: [ 'country', 'political', [length]: 2 ] },
          { long_name: '37060',
            short_name: '37060',
            types: [ 'postal_code', [length]: 1 ] },
          [length]: 6 ],
       formatted_address: '37060 Mozzecane VR, Italia',
       geometry: 
        { bounds: 
           { northeast: { lat: 45.3159412, lng: 10.8257139 },
             southwest: { lat: 45.29749229999999, lng: 10.8027012 } },
          location: { lat: 45.30880990000001, lng: 10.8169663 },
          location_type: 'APPROXIMATE',
          viewport: 
           { northeast: { lat: 45.3159412, lng: 10.8257139 },
             southwest: { lat: 45.29749229999999, lng: 10.8027012 } } },
       place_id: 'ChIJdZ9UYPDbgUcRD9oX88x7EoI',
       types: [ 'locality', 'political', [length]: 2 ] },
     [length]: 1 ],
  status: 'OK' }
object
**********************************
{ lat: 45.30880990000001, lng: 10.8169663 }
RESULT COORDINATE: ---> { results: 
   [ { address_components: 
        [ { long_name: 'Pescantina',
            short_name: 'Pescantina',
            types: [ 'locality', 'political', [length]: 2 ] },
          { long_name: 'Pescantina',
            short_name: 'Pescantina',
            types: [ 'administrative_area_level_3', 'political', [length]: 2 ] },
          { long_name: 'Provincia di Verona',
            short_name: 'VR',
            types: [ 'administrative_area_level_2', 'political', [length]: 2 ] },
          { long_name: 'Veneto',
            short_name: 'Veneto',
            types: [ 'administrative_area_level_1', 'political', [length]: 2 ] },
          { long_name: 'Italia',
            short_name: 'IT',
            types: [ 'country', 'political', [length]: 2 ] },
          { long_name: '37026',
            short_name: '37026',
            types: [ 'postal_code', [length]: 1 ] },
          [length]: 6 ],
       formatted_address: '37026 Pescantina VR, Italia',
       geometry: 
        { bounds: 
           { northeast: { lat: 45.5015016, lng: 10.8979359 },
             southwest: { lat: 45.47660579999999, lng: 10.8382721 } },
          location: { lat: 45.4827606, lng: 10.8674898 },
          location_type: 'APPROXIMATE',
          viewport: 
           { northeast: { lat: 45.5015016, lng: 10.8979359 },
             southwest: { lat: 45.47660579999999, lng: 10.8382721 } } },
       place_id: 'ChIJHYiAV0HkgUcR_YD2cwj-8eA',
       types: [ 'locality', 'political', [length]: 2 ] },
     [length]: 1 ],
  status: 'OK' }
object
**********************************
{ lat: 45.4827606, lng: 10.8674898 }
RESULT COORDINATE: ---> { results: 
   [ { address_components: 
        [ { long_name: 'Montecchia di Crosara',
            short_name: 'Montecchia di Crosara',
            types: [ 'locality', 'political', [length]: 2 ] },
          { long_name: 'Montecchia di Crosara',
            short_name: 'Montecchia di Crosara',
            types: [ 'administrative_area_level_3', 'political', [length]: 2 ] },
          { long_name: 'Provincia di Verona',
            short_name: 'VR',
            types: [ 'administrative_area_level_2', 'political', [length]: 2 ] },
          { long_name: 'Veneto',
            short_name: 'Veneto',
            types: [ 'administrative_area_level_1', 'political', [length]: 2 ] },
          { long_name: 'Italia',
            short_name: 'IT',
            types: [ 'country', 'political', [length]: 2 ] },
          { long_name: '37030',
            short_name: '37030',
            types: [ 'postal_code', [length]: 1 ] },
          [length]: 6 ],
       formatted_address: '37030 Montecchia di Crosara VR, Italia',
       geometry: 
        { bounds: 
           { northeast: { lat: 45.4895581, lng: 11.2603275 },
             southwest: { lat: 45.4746238, lng: 11.2458262 } },
          location: { lat: 45.4797613, lng: 11.2529627 },
          location_type: 'APPROXIMATE',
          viewport: 
           { northeast: { lat: 45.4895581, lng: 11.2603275 },
             southwest: { lat: 45.4746238, lng: 11.2458262 } } },
       place_id: 'ChIJ2cFV7JVFf0cRtnsa_JU7xx4',
       types: [ 'locality', 'political', [length]: 2 ] },
     [length]: 1 ],
  status: 'OK' }
object
**********************************
{ lat: 45.4797613, lng: 11.2529627 }
RESULT COORDINATE: ---> { results: 
   [ { address_components: 
        [ { long_name: 'Mezzane di Sotto',
            short_name: 'Mezzane di Sotto',
            types: [ 'locality', 'political', [length]: 2 ] },
          { long_name: 'Mezzane di sotto',
            short_name: 'Mezzane di sotto',
            types: [ 'administrative_area_level_3', 'political', [length]: 2 ] },
          { long_name: 'Provincia di Verona',
            short_name: 'VR',
            types: [ 'administrative_area_level_2', 'political', [length]: 2 ] },
          { long_name: 'Veneto',
            short_name: 'Veneto',
            types: [ 'administrative_area_level_1', 'political', [length]: 2 ] },
          { long_name: 'Italia',
            short_name: 'IT',
            types: [ 'country', 'political', [length]: 2 ] },
          { long_name: '37030',
            short_name: '37030',
            types: [ 'postal_code', [length]: 1 ] },
          [length]: 6 ],
       formatted_address: '37030 Mezzane di Sotto VR, Italia',
       geometry: 
        { bounds: 
           { northeast: { lat: 45.4871224, lng: 11.1342968 },
             southwest: { lat: 45.4748334, lng: 11.1221412 } },
          location: { lat: 45.48201950000001, lng: 11.1270175 },
          location_type: 'APPROXIMATE',
          viewport: 
           { northeast: { lat: 45.4871224, lng: 11.1342968 },
             southwest: { lat: 45.4748334, lng: 11.1221412 } } },
       place_id: 'ChIJgwf3sVFaf0cRFe8OsUJc49Y',
       types: [ 'locality', 'political', [length]: 2 ] },
     [length]: 1 ],
  status: 'OK' }
object
**********************************
{ lat: 45.48201950000001, lng: 11.1270175 }
RESULT COORDINATE: ---> { results: 
   [ { address_components: 
        [ { long_name: 'Monteforte d\'Alpone',
            short_name: 'Monteforte d\'Alpone',
            types: [ 'locality', 'political', [length]: 2 ] },
          { long_name: 'Monteforte d\'Alpone',
            short_name: 'Monteforte d\'Alpone',
            types: [ 'administrative_area_level_3', 'political', [length]: 2 ] },
          { long_name: 'Provincia di Verona',
            short_name: 'VR',
            types: [ 'administrative_area_level_2', 'political', [length]: 2 ] },
          { long_name: 'Veneto',
            short_name: 'Veneto',
            types: [ 'administrative_area_level_1', 'political', [length]: 2 ] },
          { long_name: 'Italia',
            short_name: 'IT',
            types: [ 'country', 'political', [length]: 2 ] },
          { long_name: '37032',
            short_name: '37032',
            types: [ 'postal_code', [length]: 1 ] },
          [length]: 6 ],
       formatted_address: '37032 Monteforte d\'Alpone VR, Italia',
       geometry: 
        { bounds: 
           { northeast: { lat: 45.4342716, lng: 11.296438 },
             southwest: { lat: 45.4096757, lng: 11.271307 } },
          location: { lat: 45.4224374, lng: 11.2854398 },
          location_type: 'APPROXIMATE',
          viewport: 
           { northeast: { lat: 45.4342716, lng: 11.296438 },
             southwest: { lat: 45.4096757, lng: 11.271307 } } },
       place_id: 'ChIJw8tMaTVBf0cRcLKbzZ_8DZo',
       types: [ 'locality', 'political', [length]: 2 ] },
     [length]: 1 ],
  status: 'OK' }
object
**********************************
{ lat: 45.4224374, lng: 11.2854398 }
RESULT COORDINATE: ---> { results: 
   [ { address_components: 
        [ { long_name: 'Povegliano Veronese',
            short_name: 'Povegliano Veronese',
            types: [ 'locality', 'political', [length]: 2 ] },
          { long_name: 'Povegliano veronese',
            short_name: 'Povegliano veronese',
            types: [ 'administrative_area_level_3', 'political', [length]: 2 ] },
          { long_name: 'Provincia di Verona',
            short_name: 'VR',
            types: [ 'administrative_area_level_2', 'political', [length]: 2 ] },
          { long_name: 'Veneto',
            short_name: 'Veneto',
            types: [ 'administrative_area_level_1', 'political', [length]: 2 ] },
          { long_name: 'Italia',
            short_name: 'IT',
            types: [ 'country', 'political', [length]: 2 ] },
          { long_name: '37064',
            short_name: '37064',
            types: [ 'postal_code', [length]: 1 ] },
          [length]: 6 ],
       formatted_address: '37064 Povegliano Veronese VR, Italia',
       geometry: 
        { bounds: 
           { northeast: { lat: 45.3576112, lng: 10.8903934 },
             southwest: { lat: 45.3392682, lng: 10.862533 } },
          location: { lat: 45.3483968, lng: 10.8812541 },
          location_type: 'APPROXIMATE',
          viewport: 
           { northeast: { lat: 45.3576112, lng: 10.8903934 },
             southwest: { lat: 45.3392682, lng: 10.862533 } } },
       place_id: 'ChIJoXMh9FfegUcR6vjLY51bJZM',
       types: [ 'locality', 'political', [length]: 2 ] },
     [length]: 1 ],
  status: 'OK' }
object
**********************************
{ lat: 45.3483968, lng: 10.8812541 }
RESULT COORDINATE: ---> { results: 
   [ { address_components: 
        [ { long_name: 'Peschiera del Garda',
            short_name: 'Peschiera del Garda',
            types: [ 'locality', 'political', [length]: 2 ] },
          { long_name: 'Peschiera del Garda',
            short_name: 'Peschiera del Garda',
            types: [ 'administrative_area_level_3', 'political', [length]: 2 ] },
          { long_name: 'Provincia di Verona',
            short_name: 'VR',
            types: [ 'administrative_area_level_2', 'political', [length]: 2 ] },
          { long_name: 'Veneto',
            short_name: 'Veneto',
            types: [ 'administrative_area_level_1', 'political', [length]: 2 ] },
          { long_name: 'Italia',
            short_name: 'IT',
            types: [ 'country', 'political', [length]: 2 ] },
          { long_name: '37019',
            short_name: '37019',
            types: [ 'postal_code', [length]: 1 ] },
          [length]: 6 ],
       formatted_address: '37019 Peschiera del Garda VR, Italia',
       geometry: 
        { bounds: 
           { northeast: { lat: 45.455107, lng: 10.7117685 },
             southwest: { lat: 45.4274864, lng: 10.6475488 } },
          location: { lat: 45.4396385, lng: 10.6865449 },
          location_type: 'APPROXIMATE',
          viewport: 
           { northeast: { lat: 45.455107, lng: 10.7117685 },
             southwest: { lat: 45.4274864, lng: 10.6475488 } } },
       place_id: 'ChIJoaAFNNXrgUcRlhb1HRKBrkY',
       types: [ 'locality', 'political', [length]: 2 ] },
     [length]: 1 ],
  status: 'OK' }
object
**********************************
{ lat: 45.4396385, lng: 10.6865449 }
RESULT COORDINATE: ---> { results: 
   [ { address_components: 
        [ { long_name: 'Pressana',
            short_name: 'Pressana',
            types: [ 'locality', 'political', [length]: 2 ] },
          { long_name: 'Pressana',
            short_name: 'Pressana',
            types: [ 'administrative_area_level_3', 'political', [length]: 2 ] },
          { long_name: 'Provincia di Verona',
            short_name: 'VR',
            types: [ 'administrative_area_level_2', 'political', [length]: 2 ] },
          { long_name: 'Veneto',
            short_name: 'Veneto',
            types: [ 'administrative_area_level_1', 'political', [length]: 2 ] },
          { long_name: 'Italia',
            short_name: 'IT',
            types: [ 'country', 'political', [length]: 2 ] },
          { long_name: '37040',
            short_name: '37040',
            types: [ 'postal_code', [length]: 1 ] },
          [length]: 6 ],
       formatted_address: '37040 Pressana VR, Italia',
       geometry: 
        { bounds: 
           { northeast: { lat: 45.28928579999999, lng: 11.4189401 },
             southwest: { lat: 45.2764797, lng: 11.39472 } },
          location: { lat: 45.28327040000001, lng: 11.4040644 },
          location_type: 'APPROXIMATE',
          viewport: 
           { northeast: { lat: 45.28928579999999, lng: 11.4189401 },
             southwest: { lat: 45.2764797, lng: 11.39472 } } },
       place_id: 'ChIJCTNda5sWf0cRzVb_brTq_xs',
       types: [ 'locality', 'political', [length]: 2 ] },
     [length]: 1 ],
  status: 'OK' }
object
**********************************
{ lat: 45.28327040000001, lng: 11.4040644 }
RESULT COORDINATE: ---> { results: 
   [ { address_components: 
        [ { long_name: 'Nogarole Rocca',
            short_name: 'Nogarole Rocca',
            types: [ 'locality', 'political', [length]: 2 ] },
          { long_name: 'Nogarole Rocca',
            short_name: 'Nogarole Rocca',
            types: [ 'administrative_area_level_3', 'political', [length]: 2 ] },
          { long_name: 'Provincia di Verona',
            short_name: 'VR',
            types: [ 'administrative_area_level_2', 'political', [length]: 2 ] },
          { long_name: 'Veneto',
            short_name: 'Veneto',
            types: [ 'administrative_area_level_1', 'political', [length]: 2 ] },
          { long_name: 'Italia',
            short_name: 'IT',
            types: [ 'country', 'political', [length]: 2 ] },
          { long_name: '37060',
            short_name: '37060',
            types: [ 'postal_code', [length]: 1 ] },
          [length]: 6 ],
       formatted_address: '37060 Nogarole Rocca VR, Italia',
       geometry: 
        { bounds: 
           { northeast: { lat: 45.2954414, lng: 10.8892231 },
             southwest: { lat: 45.2846705, lng: 10.8766655 } },
          location: { lat: 45.2938171, lng: 10.8787546 },
          location_type: 'APPROXIMATE',
          viewport: 
           { northeast: { lat: 45.2954414, lng: 10.8892231 },
             southwest: { lat: 45.2846705, lng: 10.8766655 } } },
       place_id: 'ChIJcWe5uMLYgUcRLB0GW-Buhbk',
       types: [ 'locality', 'political', [length]: 2 ] },
     [length]: 1 ],
  status: 'OK' }
object
**********************************
{ lat: 45.2938171, lng: 10.8787546 }
RESULT COORDINATE: ---> { results: 
   [ { address_components: 
        [ { long_name: 'Negrar',
            short_name: 'Negrar',
            types: [ 'locality', 'political', [length]: 2 ] },
          { long_name: 'Negrar',
            short_name: 'Negrar',
            types: [ 'administrative_area_level_3', 'political', [length]: 2 ] },
          { long_name: 'Provincia di Verona',
            short_name: 'VR',
            types: [ 'administrative_area_level_2', 'political', [length]: 2 ] },
          { long_name: 'Veneto',
            short_name: 'Veneto',
            types: [ 'administrative_area_level_1', 'political', [length]: 2 ] },
          { long_name: 'Italia',
            short_name: 'IT',
            types: [ 'country', 'political', [length]: 2 ] },
          { long_name: '37024',
            short_name: '37024',
            types: [ 'postal_code', [length]: 1 ] },
          [length]: 6 ],
       formatted_address: '37024 Negrar VR, Italia',
       geometry: 
        { bounds: 
           { northeast: { lat: 45.5417912, lng: 10.95492 },
             southwest: { lat: 45.5117644, lng: 10.9247146 } },
          location: { lat: 45.536146, lng: 10.9393534 },
          location_type: 'APPROXIMATE',
          viewport: 
           { northeast: { lat: 45.5417912, lng: 10.95492 },
             southwest: { lat: 45.5117644, lng: 10.9247146 } } },
       place_id: 'ChIJ1RKzezXjgUcRZzdwG0l_sGU',
       types: [ 'locality', 'political', [length]: 2 ] },
     [length]: 1 ],
  status: 'OK' }
object
**********************************
{ lat: 45.536146, lng: 10.9393534 }
RESULT COORDINATE: ---> { results: 
   [ { address_components: 
        [ { long_name: 'Pastrengo',
            short_name: 'Pastrengo',
            types: [ 'locality', 'political', [length]: 2 ] },
          { long_name: 'Pastrengo',
            short_name: 'Pastrengo',
            types: [ 'administrative_area_level_3', 'political', [length]: 2 ] },
          { long_name: 'Provincia di Verona',
            short_name: 'VR',
            types: [ 'administrative_area_level_2', 'political', [length]: 2 ] },
          { long_name: 'Veneto',
            short_name: 'Veneto',
            types: [ 'administrative_area_level_1', 'political', [length]: 2 ] },
          { long_name: 'Italia',
            short_name: 'IT',
            types: [ 'country', 'political', [length]: 2 ] },
          { long_name: '37010',
            short_name: '37010',
            types: [ 'postal_code', [length]: 1 ] },
          [length]: 6 ],
       formatted_address: '37010 Pastrengo VR, Italia',
       geometry: 
        { bounds: 
           { northeast: { lat: 45.5065869, lng: 10.8084546 },
             southwest: { lat: 45.48669779999999, lng: 10.7933172 } },
          location: { lat: 45.4946896, lng: 10.7995124 },
          location_type: 'APPROXIMATE',
          viewport: 
           { northeast: { lat: 45.5065869, lng: 10.8084546 },
             southwest: { lat: 45.48669779999999, lng: 10.7933172 } } },
       place_id: 'ChIJueESXWPvgUcRIg2YSfgxI1M',
       types: [ 'locality', 'political', [length]: 2 ] },
     [length]: 1 ],
  status: 'OK' }
object
**********************************
{ lat: 45.4946896, lng: 10.7995124 }
RESULT COORDINATE: ---> { results: 
   [ { address_components: 
        [ { long_name: 'Pal',
            short_name: 'Pal',
            types: [ 'locality', 'political', [length]: 2 ] },
          { long_name: 'Pal',
            short_name: 'Pal',
            types: [ 'administrative_area_level_3', 'political', [length]: 2 ] },
          { long_name: 'Provincia di Verona',
            short_name: 'VR',
            types: [ 'administrative_area_level_2', 'political', [length]: 2 ] },
          { long_name: 'Veneto',
            short_name: 'Veneto',
            types: [ 'administrative_area_level_1', 'political', [length]: 2 ] },
          { long_name: 'Italia',
            short_name: 'IT',
            types: [ 'country', 'political', [length]: 2 ] },
          { long_name: '37050',
            short_name: '37050',
            types: [ 'postal_code', [length]: 1 ] },
          [length]: 6 ],
       formatted_address: '37050 Pal VR, Italia',
       geometry: 
        { bounds: 
           { northeast: { lat: 45.3289675, lng: 11.1670434 },
             southwest: { lat: 45.3193534, lng: 11.1495791 } },
          location: { lat: 45.325791, lng: 11.1531668 },
          location_type: 'APPROXIMATE',
          viewport: 
           { northeast: { lat: 45.3289675, lng: 11.1670434 },
             southwest: { lat: 45.3193534, lng: 11.1495791 } } },
       place_id: 'ChIJYUhR2ltof0cROn2H9lMcPMo',
       types: [ 'locality', 'political', [length]: 2 ] },
     { address_components: 
        [ { long_name: 'Pal',
            short_name: 'Pal',
            types: [ 'locality', 'political', [length]: 2 ] },
          { long_name: 'Bardolino',
            short_name: 'Bardolino',
            types: [ 'administrative_area_level_3', 'political', [length]: 2 ] },
          { long_name: 'Provincia di Verona',
            short_name: 'VR',
            types: [ 'administrative_area_level_2', 'political', [length]: 2 ] },
          { long_name: 'Veneto',
            short_name: 'Veneto',
            types: [ 'administrative_area_level_1', 'political', [length]: 2 ] },
          { long_name: 'Italia',
            short_name: 'IT',
            types: [ 'country', 'political', [length]: 2 ] },
          { long_name: '37011',
            short_name: '37011',
            types: [ 'postal_code', [length]: 1 ] },
          [length]: 6 ],
       formatted_address: '37011 Pal VR, Italia',
       geometry: 
        { bounds: 
           { northeast: { lat: 45.5085888, lng: 10.7731718 },
             southwest: { lat: 45.5053242, lng: 10.768575 } },
          location: { lat: 45.50697659999999, lng: 10.7719992 },
          location_type: 'APPROXIMATE',
          viewport: 
           { northeast: { lat: 45.5085888, lng: 10.7731718 },
             southwest: { lat: 45.5053242, lng: 10.768575 } } },
       place_id: 'ChIJdb2GrQfvgUcR4EucrokJBwo',
       types: [ 'locality', 'political', [length]: 2 ] },
     { address_components: 
        [ { long_name: 'Pal',
            short_name: 'Pal',
            types: [ 'locality', 'political', [length]: 2 ] },
          { long_name: 'Legnago',
            short_name: 'Legnago',
            types: [ 'administrative_area_level_3', 'political', [length]: 2 ] },
          { long_name: 'Provincia di Verona',
            short_name: 'VR',
            types: [ 'administrative_area_level_2', 'political', [length]: 2 ] },
          { long_name: 'Veneto',
            short_name: 'Veneto',
            types: [ 'administrative_area_level_1', 'political', [length]: 2 ] },
          { long_name: 'Italia',
            short_name: 'IT',
            types: [ 'country', 'political', [length]: 2 ] },
          { long_name: '37045',
            short_name: '37045',
            types: [ 'postal_code', [length]: 1 ] },